name,date,zori,lat,lng,pop_2023,zori_yoy,demand
"New York, NY",2020-06-01,2555.063030753773,40.6943,-73.9249,19498249.0,0.006696651102659601,53.0
"Los Angeles, CA",2020-06-01,2322.1299941501907,34.1141,-118.4068,12799100.0,0.010357898785846809,134.0
"Chicago, IL",2020-06-01,1571.460683365405,41.8375,-87.6866,9262825.0,0.013366845346170164,97.0
"Dallas, TX",2020-06-01,1360.951027173273,32.7935,-96.7667,8100037.0,0.01575166604042666,108.0
"Houston, TX",2020-06-01,1372.6660168145888,29.786,-95.3885,7510253.0,0.009875775537974363,46.0
"Washington, DC",2020-06-01,1944.1808807100672,38.9047,-77.0163,6304975.0,0.014374658931664008,102.0
"Philadelphia, PA",2020-06-01,1462.920826239535,40.0077,-75.1339,6246160.0,0.02677687065347545,211.0
"Miami, FL",2020-06-01,1758.066975956141,25.784,-80.2101,6183199.0,0.021381067943887944,32.0
"Atlanta, GA",2020-06-01,1401.1316339580649,33.7628,-84.422,6307261.0,0.033147693787172194,212.0
"Boston, MA",2020-06-01,2388.4266500703293,42.3188,-71.0852,4919179.0,0.018187789221995043,28.0
"Phoenix, AZ",2020-06-01,1329.1162319128314,33.5722,-112.0892,5070110.0,0.05862941420166057,190.0
"San Francisco, CA",2020-06-01,2822.060306087488,37.7558,-122.4449,4566961.0,0.0077211726770471945,103.0
"Riverside, CA",2020-06-01,1760.7449044757416,33.9381,-117.3949,4688053.0,0.032223254099903675,355.0
"Detroit, MI",2020-06-01,1085.1202180648727,42.3834,-83.1024,4342304.0,0.028738692258384324,231.0
"Seattle, WA",2020-06-01,1830.2733885593527,47.6211,-122.3244,4044837.0,0.032424525530081905,108.0
"Minneapolis, MN",2020-06-01,1441.3970556203374,44.9635,-93.2678,3712020.0,0.019604968211887286,136.0
"San Diego, CA",2020-06-01,2147.73698830112,32.8313,-117.1222,3269973.0,0.017981714403546123,150.0
"Tampa, FL",2020-06-01,1367.2971126411198,27.9945,-82.4447,3342963.0,0.03439194825441083,125.0
"Denver, CO",2020-06-01,1583.8886209974762,39.762,-104.8758,3005131.0,0.00739255877092071,136.0
"Baltimore, MD",2020-06-01,1463.8797630505344,39.3051,-76.6144,2834316.0,0.009277752399537986,122.0
"St. Louis, MO",2020-06-01,1019.9538157054924,38.6359,-90.2451,2796999.0,0.0346789218605259,182.0
"Orlando, FL",2020-06-01,1458.5560346905895,28.4773,-81.337,2817933.0,0.018160041693729312,122.0
"Charlotte, NC",2020-06-01,1320.636645807759,35.2083,-80.8303,2805115.0,0.02623201034510947,145.0
"San Antonio, TX",2020-06-01,1206.534413087104,29.4632,-98.5238,2703999.0,0.016895468255904822,101.0
"Portland, OR",2020-06-01,1483.3741663083003,45.5371,-122.65,2508050.0,0.015002772890367444,130.0
"Sacramento, CA",2020-06-01,1752.872426319651,38.5677,-121.4685,2420608.0,0.0280659252083435,314.0
"Pittsburgh, PA",2020-06-01,1151.5394646269472,40.4397,-79.9763,2422725.0,0.03380277851301461,104.0
"Cincinnati, OH",2020-06-01,1120.1835569743391,39.1413,-84.506,2271479.0,0.04775053303556409,170.0
"Austin, TX",2020-06-01,1431.306248028799,30.3005,-97.7522,2473275.0,0.018184425578767982,68.0
"Las Vegas, NV",2020-06-01,1303.762309100278,36.2333,-115.2654,2336573.0,0.019083035271232562,189.0
"Kansas City, MO",2020-06-01,1071.0882337317496,39.1238,-94.5541,2221343.0,0.04084804065795056,153.0
"Columbus, OH",2020-06-01,1121.974726750215,39.9862,-82.9855,2180271.0,0.03923669306914013,152.0
"Indianapolis, IN",2020-06-01,1118.3343544571114,39.7771,-86.1458,2138468.0,0.048697783191463895,162.0
"Cleveland, OH",2020-06-01,996.3021574351114,41.4764,-81.6805,2063132.0,0.04290749072056044,229.0
"San Jose, CA",2020-06-01,2970.0537437635785,37.3012,-121.848,1945767.0,0.005217065535867871,104.0
"Nashville, TN",2020-06-01,1455.5254754146288,36.1715,-86.7842,2102573.0,0.02803183204987736,85.0
"Virginia Beach, VA",2020-06-01,1244.6537327252486,36.7335,-76.0435,1787169.0,0.024055693341794582,258.0
"Providence, RI",2020-06-01,1442.6453465964687,41.823,-71.4187,1677803.0,0.039755744583735764,272.0
"Jacksonville, FL",2020-06-01,1245.196100555216,30.3322,-81.6749,1713240.0,0.03183640383266928,120.0
"Milwaukee, WI",2020-06-01,1043.8267294742257,43.0642,-87.9675,1560424.0,0.026627234362709196,176.0
"Oklahoma City, OK",2020-06-01,1051.600591705983,35.4676,-97.5136,1477926.0,0.02429482390994342,89.0
"Raleigh, NC",2020-06-01,1332.2369711720423,35.8324,-78.6429,1509231.0,0.0218592019414503,137.0
"Memphis, TN",2020-06-01,1072.7187774225863,35.1087,-89.9663,1335674.0,0.06055793464012704,236.0
"Richmond, VA",2020-06-01,1211.6581214042542,37.5295,-77.4756,1349732.0,0.03122108730525408,199.0
"Louisville, KY",2020-06-01,1028.30493376169,38.1663,-85.6485,1365557.0,0.029301520772657907,146.0
"New Orleans, LA",2020-06-01,1261.69399088345,30.0687,-89.9288,962165.0,0.023694261164457497,96.0
"Salt Lake City, UT",2020-06-01,1254.4691188946258,40.7776,-111.9311,1267864.0,0.023698965283876383,120.0
"Hartford, CT",2020-06-01,1319.1272658614546,41.7661,-72.6834,1151543.0,0.026400788748974335,177.0
"Buffalo, NY",2020-06-01,983.3433864593504,42.9018,-78.8487,1155604.0,0.042564960216147085,169.0
"Birmingham, AL",2020-06-01,1043.4384561744491,33.5279,-86.7971,1184290.0,0.03545028239766035,85.0
"Rochester, NY",2020-06-01,1064.1776638437798,43.168,-77.6162,1052087.0,0.023022969537601412,157.0
"Grand Rapids, MI",2020-06-01,1231.2816140043358,42.9619,-85.6562,1162950.0,0.040426456407427036,191.0
"Tucson, AZ",2020-06-01,1149.671524469832,32.1541,-110.8787,1063162.0,0.0474621113530973,185.0
"Urban Honolulu, HI",2020-06-01,2135.7842638603565,,,989408.0,-0.000672516927454736,105.0
"Tulsa, OK",2020-06-01,1029.377491149778,36.1283,-95.9042,,0.03717348202303472,115.0
"Fresno, CA",2020-06-01,1416.2608702888529,36.783,-119.7939,,0.04132395180323023,318.0
"Worcester, MA",2020-06-01,1410.4946560542653,42.2705,-71.8079,,0.05131356240862983,291.0
"Omaha, NE",2020-06-01,1015.99047758208,41.2627,-96.0529,,0.0425443444024769,138.0
"Bridgeport, CT",2020-06-01,2033.2475591547668,41.1918,-73.1954,,0.036369003229903774,144.0
"Greenville, SC",2020-06-01,1150.5599588155708,34.8354,-82.3646,,0.027877752549189783,124.0
"Albuquerque, NM",2020-06-01,1052.408438243346,35.1054,-106.6465,,0.03650120446558125,200.0
"Bakersfield, CA",2020-06-01,1209.4514483956357,35.3529,-119.0359,,0.040775298998416476,432.0
"Albany, NY",2020-06-01,1203.8136479233603,42.6664,-73.7987,,0.02886270554030612,95.0
"Knoxville, TN",2020-06-01,1130.3876081766978,35.9692,-83.9496,,0.02469557970316516,208.0
"Baton Rouge, LA",2020-06-01,1111.9130220020995,30.442,-91.1311,,-0.0004610514829215262,78.0
"McAllen, TX",2020-06-01,907.6989831704392,26.2252,-98.2467,,0.02944154120493736,34.0
"New Haven, CT",2020-06-01,1358.1131192142132,41.3113,-72.9246,,0.03857583490901262,190.0
"El Paso, TX",2020-06-01,1084.9268815675691,31.8476,-106.43,,0.04901877445941594,183.0
"Allentown, PA",2020-06-01,1246.3294411312097,40.5961,-75.4756,,0.03031138132404476,289.0
"Oxnard, CA",2020-06-01,2273.7395532531805,34.1964,-119.1815,,0.0180759951387075,128.0
"Columbia, SC",2020-06-01,1122.0352218017592,34.0378,-80.9036,,0.035972757897193564,153.0
"North Port, FL",2020-06-01,1506.9187983964111,27.0576,-82.1977,,0.024365291072273143,40.0
"Dayton, OH",2020-06-01,942.8305632114518,39.7805,-84.2003,,0.060892890132496325,253.0
"Charleston, SC",2020-06-01,1353.6970936492469,32.8168,-79.9687,,0.012944137346381446,72.0
"Greensboro, NC",2020-06-01,1034.2492701437254,36.0956,-79.8271,,0.04563347554920316,316.0
"Stockton, CA",2020-06-01,1786.4995824481396,37.9765,-121.3109,,0.05146242454731498,605.0
"Cape Coral, FL",2020-06-01,1382.984336405411,26.6443,-81.9957,,0.02944870652083953,44.0
"Boise City, ID",2020-06-01,1300.9633512551363,,,,0.04747903459481839,148.0
"Colorado Springs, CO",2020-06-01,1408.0397338326145,38.8674,-104.7605,,0.042094872454318866,214.0
"Little Rock, AR",2020-06-01,931.2164857965408,34.7256,-92.3577,,0.025156737885251523,134.0
"Lakeland, FL",2020-06-01,1346.9985999786722,28.0557,-81.9545,,0.054187641617746474,197.0
"Akron, OH",2020-06-01,890.2814435793473,41.0798,-81.5219,,0.04901809463767215,222.0
"Des Moines, IA",2020-06-01,1057.9100288882344,41.5725,-93.6105,,0.01364917006414279,44.0
"Springfield, MA",2020-06-01,1228.3075683839431,42.1155,-72.5395,,0.03858153276675225,225.0
"Poughkeepsie, NY",2020-06-01,1523.3175582930774,41.695,-73.9211,,0.060351348929623905,218.0
"Ogden, UT",2020-06-01,1196.2984438437527,41.2279,-111.9682,,0.040442371018009515,98.0
"Madison, WI",2020-06-01,1348.6206585841812,43.0822,-89.393,,0.035008594349809075,55.0
"Winston, NC",2020-06-01,1080.4863378321704,,,,0.039859808363230664,191.0
"Deltona, FL",2020-06-01,1323.2116573132396,28.905,-81.2137,,0.03509004897752788,98.0
"Syracuse, NY",2020-06-01,1070.8170056764748,43.0407,-76.1437,,0.049477191382189645,152.0
"Provo, UT",2020-06-01,1331.9892517556789,40.2457,-111.6457,,0.01946084796016878,79.0
"Toledo, OH",2020-06-01,860.1932837698645,41.6638,-83.5827,,0.036965367803076354,210.0
"Wichita, KS",2020-06-01,842.1710532926735,37.6895,-97.3443,,0.032842622295833346,175.0
"Durham, NC",2020-06-01,1289.4491667957952,35.9792,-78.9022,,0.025506290032034196,93.0
"Augusta, GA",2020-06-01,1003.324619248815,33.3645,-82.0708,,0.050324765605288535,226.0
"Palm Bay, FL",2020-06-01,1375.1028622491558,27.9631,-80.6593,,0.026647070352762592,91.0
"Jackson, MS",2020-06-01,1081.5082527229988,32.3157,-90.2125,,0.04689641418656154,136.0
"Harrisburg, PA",2020-06-01,1030.332923635272,40.2752,-76.8843,,0.03547881939073272,224.0
"Spokane, WA",2020-06-01,1083.8152593623024,47.6671,-117.433,,0.06026626686467784,107.0
"Scranton, PA",2020-06-01,904.957169530968,41.4044,-75.6649,,0.050801430145323456,293.0
"Chattanooga, TN",2020-06-01,1087.6306613237512,35.066,-85.2481,,0.04247265107190579,156.0
"Modesto, CA",2020-06-01,1488.9691443214665,37.6375,-121.0028,,0.06627822134368744,634.0
"Lancaster, PA",2020-06-01,999.7640345870644,40.042,-76.3012,,0.03471152978451175,240.0
"Portland, ME",2020-06-01,1590.4914458928718,43.6773,-70.2715,,0.042238389539000165,166.0
"Youngstown, OH",2020-06-01,721.5313142062404,41.0993,-80.6463,,0.05433663226448515,88.0
"Lansing, MI",2020-06-01,1013.1483964518,42.7142,-84.5601,,0.048854542560808234,124.0
"Fayetteville, AR",2020-06-01,1141.6876215520342,36.0714,-94.1661,,0.033394096730444245,84.0
"Fayetteville, NC",2020-06-01,974.4862952181657,35.085,-78.9772,,0.05102241813818842,569.0
"Lexington, KY",2020-06-01,1014.575453074504,38.0423,-84.4587,,0.02488701469366017,122.0
"Pensacola, FL",2020-06-01,1205.8115772092133,30.4413,-87.1911,,0.056435688498361,260.0
"Santa Rosa, CA",2020-06-01,2165.656050567139,38.4458,-122.7067,,0.005048711674679129,108.0
"Reno, NV",2020-06-01,1448.6392259223592,39.5497,-119.8483,,0.027013370992942765,190.0
"Huntsville, AL",2020-06-01,1081.6758856200324,34.6981,-86.6412,,0.10221463876036618,222.0
"Port St. Lucie, FL",2020-06-01,1517.5893776464004,27.2796,-80.3884,,0.036372274914041824,59.0
"Lafayette, LA",2020-06-01,991.7385792621094,30.2082,-92.0325,,0.01019974260022427,68.0
"Myrtle Beach, SC",2020-06-01,1217.55682398546,33.7094,-78.8844,,0.028191034172224017,136.0
"Springfield, MO",2020-06-01,877.2558694029431,37.1943,-93.2916,,0.051945718261152685,177.0
"Visalia, CA",2020-06-01,1239.9195156586698,36.3276,-119.3269,,0.04021007082598338,277.0
"Killeen, TX",2020-06-01,957.5516450025274,31.0753,-97.7297,,0.034508726654504995,227.0
"Asheville, NC",2020-06-01,1269.4350652938876,35.5707,-82.5537,,0.024747435245950467,131.0
"York, PA",2020-06-01,974.1175722540004,39.9651,-76.7315,,0.03603752314368336,151.0
"Vallejo, CA",2020-06-01,1976.4878392486671,38.1125,-122.2342,,0.022170868727999782,269.0
"Santa Maria, CA",2020-06-01,2468.1187580580813,34.9333,-120.4431,,0.03463811727512156,53.0
"Salinas, CA",2020-06-01,2037.5003557960688,36.6883,-121.6317,,0.026568054524090723,134.0
"Salem, OR",2020-06-01,1214.4607194973494,44.9233,-123.0244,,0.03398867419956009,131.0
"Mobile, AL",2020-06-01,891.1906588381127,30.6782,-88.1162,,0.028907171355384786,175.0
"Reading, PA",2020-06-01,911.0947600687624,40.34,-75.9267,,0.0339202742513951,367.0
"Corpus Christi, TX",2020-06-01,1223.041166624563,27.7254,-97.3767,,0.021081600222476293,88.0
"Brownsville, TX",2020-06-01,1004.1544094657482,25.9975,-97.458,,0.02249981957755609,84.0
"Manchester, NH",2020-06-01,1388.5261077371897,42.9848,-71.4447,,0.04602771393434635,249.0
"Fort Wayne, IN",2020-06-01,781.0027377334299,41.0888,-85.1436,,0.03641618230507215,214.0
"Gulfport, MS",2020-06-01,1005.3030241253002,30.4274,-89.0704,,0.04498963949683499,151.0
"Salisbury, MD",2020-06-01,1305.3787088086624,38.3756,-75.5865,,0.0352824563462375,194.0
"Flint, MI",2020-06-01,800.3061621431856,43.0236,-83.6921,,0.05783661026009557,126.0
"Peoria, IL",2020-06-01,773.4681561823854,40.752,-89.6154,,0.03508519102566199,98.0
"Canton, OH",2020-06-01,763.6163208648604,40.8078,-81.3676,,0.0477049911619849,179.0
"Savannah, GA",2020-06-01,1224.7594528258992,32.0286,-81.1821,,0.03136427476500381,87.0
"Anchorage, AK",2020-06-01,1317.8532142071144,61.1508,-149.1091,,0.008553702430876164,69.0
"Beaumont, TX",2020-06-01,971.2136886952763,30.0849,-94.1451,,0.06195550282889872,58.0
"Shreveport, LA",2020-06-01,995.8641391898826,32.4653,-93.7955,,0.02012224829838183,97.0
"Trenton, NJ",2020-06-01,1747.3633483276578,40.2237,-74.7641,,0.018504208686368928,148.0
"Montgomery, AL",2020-06-01,946.6182181715984,32.3482,-86.2668,,0.019772004536440013,129.0
"Davenport, IA",2020-06-01,791.3435158792628,41.5565,-90.6053,,0.019589296595096117,52.0
"Tallahassee, FL",2020-06-01,1025.403250615417,30.4551,-84.2527,,0.023518028747058883,122.0
"Eugene, OR",2020-06-01,1304.6645502618155,44.0564,-123.1174,,0.039240751801482565,109.0
"Naples, FL",2020-06-01,1939.4545120638984,26.1504,-81.7936,,0.016905400597901687,10.0
"Ann Arbor, MI",2020-06-01,1621.15542124171,42.2759,-83.731,,0.01071933650363599,56.0
"Ocala, FL",2020-06-01,1079.1398977141828,29.178,-82.1511,,0.03621221771000904,232.0
"Hickory, NC",2020-06-01,,35.741,-81.3223,,,181.0
"Huntington, WV",2020-06-01,757.3811225750916,38.4109,-82.4345,,0.03931941432501285,67.0
"Fort Collins, CO",2020-06-01,1530.0400540905064,40.5477,-105.0656,,0.018249284401465893,109.0
"Rockford, IL",2020-06-01,861.3132284843542,42.2596,-89.064,,0.03580436786716623,217.0
"Lincoln, NE",2020-06-01,947.8386641411172,40.8099,-96.6784,,0.03025276509318764,117.0
"Gainesville, FL",2020-06-01,1226.1125160166248,29.6804,-82.3459,,0.051827315759534365,86.0
"Boulder, CO",2020-06-01,1962.731294089186,40.0248,-105.2524,,0.013018746531596515,89.0
"Green Bay, WI",2020-06-01,,44.5148,-87.9895,,,162.0
"Columbus, GA",2020-06-01,903.7034364927504,32.51,-84.8771,,0.08258471858042893,273.0
"South Bend, IN",2020-06-01,865.136145189841,41.6767,-86.2696,,0.04956234843304674,295.0
"Spartanburg, SC",2020-06-01,1059.9274117834311,34.9442,-81.9251,,0.03984165736760148,201.0
"Greeley, CO",2020-06-01,1474.8355652587054,40.4152,-104.7706,,0.02878531295529352,79.0
"Lubbock, TX",2020-06-01,1107.4929750708293,33.5657,-101.8879,,0.02921747338259073,75.0
"Clarksville, TN",2020-06-01,982.1903535302904,36.5692,-87.3413,,0.04567668990999696,151.0
"Roanoke, VA",2020-06-01,963.7973096132904,37.2785,-79.9581,,0.029048144968772727,159.0
"Evansville, IN",2020-06-01,708.8379444487639,37.9881,-87.5341,,0.03462137701219148,199.0
"Kingsport, TN",2020-06-01,,36.5224,-82.5454,,,112.0
"Kennewick, WA",2020-06-01,1230.715945702592,46.1978,-119.1732,,0.023343586683821194,92.0
"Utica, NY",2020-06-01,,43.0962,-75.2261,,,101.0
"Hagerstown, MD",2020-06-01,1060.9243425548696,39.6401,-77.7217,,0.03512724361764086,258.0
"Duluth, MN",2020-06-01,1195.916611192379,46.7756,-92.1393,,0.029459567462942093,69.0
"Olympia, WA",2020-06-01,1484.9912544742892,47.0417,-122.8959,,0.056725906234996515,94.0
"Longview, TX",2020-06-01,843.5243975832551,32.5193,-94.7622,,0.036217865815903805,122.0
"Wilmington, NC",2020-06-01,1257.508615177424,34.2099,-77.8866,,0.06292025690456127,116.0
"San Luis Obispo, CA",2020-06-01,2022.157954470176,35.2669,-120.669,,0.019665440001444878,65.0
"Crestview, FL",2020-06-01,1370.0176425210914,30.7477,-86.5785,,0.03469006043982459,120.0
"Merced, CA",2020-06-01,1394.8338753199146,37.3057,-120.4779,,0.04646800558503528,297.0
"Waco, TX",2020-06-01,1138.9749165732103,31.5599,-97.1882,,0.0590351869328809,102.0
"Cedar Rapids, IA",2020-06-01,853.7182697720292,41.9662,-91.6783,,0.020346652293830703,78.0
"Atlantic City, NJ",2020-06-01,1200.0438631129796,39.3797,-74.4527,,0.025911154856341323,203.0
"Bremerton, WA",2020-06-01,1563.1967420522226,47.5436,-122.7121,,0.027449190565109305,80.0
"Sioux Falls, SD",2020-06-01,938.7566085675036,43.5396,-96.7311,,0.03305552461078087,26.0
"Santa Cruz, CA",2020-06-01,2594.0054249096315,36.9789,-122.0346,,0.015468763650777095,149.0
"Erie, PA",2020-06-01,692.4618242394978,42.1167,-80.0733,,0.014168136743756277,117.0
"Norwich, CT",2020-06-01,1210.000373553073,41.5495,-72.0882,,0.023992021899418514,146.0
"Amarillo, TX",2020-06-01,1012.9616924727328,35.1984,-101.8316,,0.021536856664462478,94.0
"Laredo, TX",2020-06-01,984.8913357176036,27.5625,-99.4874,,0.003951774712206202,31.0
"Tuscaloosa, AL",2020-06-01,1174.7295340466787,33.2348,-87.5268,,0.036457515481072456,57.0
"College Station, TX",2020-06-01,1536.6188038403318,30.5852,-96.2959,,0.021047876600132964,24.0
"Kalamazoo, MI",2020-06-01,1031.4814442759396,42.2749,-85.5882,,0.04065679987720827,100.0
"Lynchburg, VA",2020-06-01,934.411745337796,37.4003,-79.1909,,0.04231441742579367,122.0
"Charleston, WV",2020-06-01,733.2737096428838,38.3484,-81.6322,,0.03970008076972387,97.0
"Yakima, WA",2020-06-01,,46.5923,-120.5496,,,
"Fargo, ND",2020-06-01,998.7261505412934,46.8651,-96.8292,,0.02142583702283507,25.0
"Binghamton, NY",2020-06-01,876.5010233858143,42.1014,-75.9093,,0.04061210896378409,107.0
"Fort Smith, AR",2020-06-01,677.3031501754829,35.3495,-94.3695,,0.03325069361135169,75.0
"Appleton, WI",2020-06-01,,44.278,-88.3892,,,138.0
"Prescott Valley, AZ",2020-06-01,1354.7384379182245,34.598,-112.3185,,0.038853527735268845,
"Topeka, KS",2020-06-01,798.3568902649736,39.0346,-95.6955,,0.025129920354913127,84.0
"Macon, GA",2020-06-01,790.0797427834583,32.8065,-83.6974,,0.007662074602328817,325.0
"Tyler, TX",2020-06-01,1125.3890890387145,32.3184,-95.3062,,0.014473747670044279,88.0
"Barnstable Town, MA",2020-06-01,1879.774942633467,,,,0.11794540062332515,199.0
"Daphne, AL",2020-06-01,1299.326097679453,30.6263,-87.8816,,0.029554238610227435,64.0
"Bellingham, WA",2020-06-01,1489.7377215145757,48.7548,-122.469,,0.07234863248056045,154.0
"Burlington, VT",2020-06-01,1747.220358125854,44.4876,-73.2316,,0.042157434471526756,153.0
"Rochester, MN",2020-06-01,1358.1458258405205,44.0154,-92.478,,0.03194894401730708,59.0
"Lafayette, IN",2020-06-01,1132.4468831212114,40.3991,-86.8593,,0.035523454475582916,72.0
"Champaign, IL",2020-06-01,1001.8137343633869,40.1142,-88.2737,,0.015041691467280405,56.0
"Medford, OR",2020-06-01,1371.0612047464435,42.3372,-122.854,,0.018278323654357775,123.0
"Lebanon, NH",2020-06-01,1428.7224994836365,43.6353,-72.2531,,0.056662891469559495,
"Charlottesville, VA",2020-06-01,1405.7092514392937,38.0375,-78.4855,,0.02313930669510933,55.0
"Lake Charles, LA",2020-06-01,885.7540216921323,30.201,-93.2111,,-0.05191757427906729,38.0
"Las Cruces, NM",2020-06-01,1029.4241652001592,32.3265,-106.7893,,0.049851204619524525,191.0
"Chico, CA",2020-06-01,1326.4431763331097,39.7578,-121.8161,,0.03267805141563995,107.0
"Hilton Head Island, SC",2020-06-01,1372.6167510827556,32.1896,-80.7499,,0.0012219972103495458,70.0
"Athens, GA",2020-06-01,1308.8746854495507,33.9508,-83.3689,,0.07188787750356362,101.0
"Lake Havasu City, AZ",2020-06-01,1127.2553021110466,34.5006,-114.3113,,0.06954117317450037,290.0
"Columbia, MO",2020-06-01,808.7116868286121,38.9472,-92.3268,,0.015897536832490067,50.0
"Springfield, IL",2020-06-01,805.5484795257064,39.7709,-89.654,,0.014777239234127881,120.0
"Houma, LA",2020-06-01,,29.58,-90.7059,,,68.0
"Monroe, LA",2020-06-01,,32.5185,-92.0774,,,91.0
"Elkhart, IN",2020-06-01,,41.6916,-85.9627,,,144.0
"Johnson City, TN",2020-06-01,866.2674754928181,36.3406,-82.3806,,0.02630883008060314,228.0
"Yuma, AZ",2020-06-01,,32.5995,-114.5491,,,274.0
"Gainesville, GA",2020-06-01,1229.818760813161,34.2902,-83.8294,,0.021424341826710602,156.0
"Jacksonville, NC",2020-06-01,971.2844791042594,34.7289,-77.3941,,0.01067978868718833,185.0
"Florence, SC",2020-06-01,1055.9184466652923,34.178,-79.7898,,0.028094602372568778,136.0
"Hilo, HI",2020-06-01,,19.6883,-155.0863,,,
"St. Cloud, MN",2020-06-01,982.1663159526624,45.534,-94.1718,,-0.004818067097881129,65.0
"Racine, WI",2020-06-01,989.8065655182812,42.7274,-87.8135,,0.0659970705182149,245.0
"Bend, OR",2020-06-01,1604.6739414743477,44.0563,-121.3095,,0.0340610207001113,155.0
"Saginaw, MI",2020-06-01,,43.4199,-83.9501,,,65.0
"Warner Robins, GA",2020-06-01,1072.7338891861227,32.5961,-83.6527,,0.04366245211714692,553.0
"Terre Haute, IN",2020-06-01,,39.466,-87.3751,,,60.0
"Torrington, CT",2020-06-01,1132.3709035413983,41.8349,-73.1282,,0.1023766690635679,122.0
"Punta Gorda, FL",2020-06-01,1685.7963264080245,26.8941,-82.0513,,0.041479605001907505,34.0
"Billings, MT",2020-06-01,989.9000302244096,45.7891,-108.5526,,0.016598394654566695,118.0
"Redding, CA",2020-06-01,1189.6864493407795,40.5698,-122.365,,0.06395132372135182,160.0
"Kingston, NY",2020-06-01,1500.1229377955458,41.9295,-73.9968,,0.027095376164411933,266.0
"Panama City, FL",2020-06-01,1344.3522965315908,30.1995,-85.6003,,-0.05367530914403973,90.0
"Joplin, MO",2020-06-01,,37.0757,-94.5018,,,198.0
"Dover, DE",2020-06-01,1194.1165616061403,39.161,-75.5202,,0.023595741835679362,448.0
"El Centro, CA",2020-06-01,,32.7865,-115.5595,,,266.0
"Jackson, TN",2020-06-01,,35.6538,-88.8354,,,238.0
"Yuba City, CA",2020-06-01,1530.2964806847529,39.1357,-121.6383,,0.045023978024424594,164.0
"Bowling Green, KY",2020-06-01,1005.180758024205,36.9716,-86.4378,,0.027078355402365917,112.0
"St. George, UT",2020-06-01,1354.470828765316,37.0758,-113.5752,,0.015963412344959682,85.0
"Muskegon, MI",2020-06-01,,43.2281,-86.2562,,,179.0
"Abilene, TX",2020-06-01,943.253428028175,32.4543,-99.7384,,0.03819011131874661,93.0
"Iowa City, IA",2020-06-01,1387.081759813349,41.6559,-91.5303,,0.009255329207346952,29.0
"Auburn, AL",2020-06-01,1092.9329571495336,32.6087,-85.4903,,0.00989628584186275,68.0
"Midland, TX",2020-06-01,1459.162527987031,32.0243,-102.1147,,-0.13651800073087306,30.0
"Bloomington, IL",2020-06-01,908.5053387707784,40.4757,-88.9703,,0.052076703746205766,103.0
"Hattiesburg, MS",2020-06-01,,31.3074,-89.317,,,168.0
"Oshkosh, WI",2020-06-01,782.0827808137079,44.0227,-88.5619,,0.07914296006838373,109.0
"Eau Claire, WI",2020-06-01,,44.8197,-91.4948,,,76.0
"Greenville, NC",2020-06-01,1073.360976914952,35.5943,-77.376,,0.06759636366552302,124.0
"Burlington, NC",2020-06-01,898.4189590850032,36.076,-79.4685,,0.0596096272925295,260.0
"Waterloo, IA",2020-06-01,891.0262738341432,42.4918,-92.3522,,0.015829670644048166,29.0
"Coeur d'Alene, ID",2020-06-01,1268.778121268221,47.704,-116.7936,,0.06519210633978201,87.0
"East Stroudsburg, PA",2020-06-01,1200.878444363319,41.0023,-75.1779,,0.06467420603644536,85.0
"Pueblo, CO",2020-06-01,1007.5171611326984,38.2701,-104.6114,,0.09065099315376357,292.0
"Blacksburg, VA",2020-06-01,1329.8065261626557,37.23,-80.4279,,0.05792299522691846,103.0
"Wausau, WI",2020-06-01,,44.962,-89.6459,,,
"Kahului, HI",2020-06-01,,20.8715,-156.4603,,,79.0
"Janesville, WI",2020-06-01,,42.6854,-89.0135,,,140.0
"Tupelo, MS",2020-06-01,,34.2692,-88.7318,,,190.0
"Bloomington, IN",2020-06-01,1321.534994501158,39.1637,-86.5257,,0.02933977382772901,52.0
"Odessa, TX",2020-06-01,1311.9299960251813,31.8801,-102.3448,,-0.12888258011351028,27.0
"Jackson, MI",2020-06-01,746.8984319604644,42.2431,-84.4038,,0.04690680606361286,92.0
"State College, PA",2020-06-01,1512.422666177404,40.7909,-77.8567,,0.012315793828706623,43.0
"Sebastian, FL",2020-06-01,1559.6039318400074,27.7822,-80.4819,,0.07344842962194242,29.0
"Madera, CA",2020-06-01,,36.963,-120.0778,,,158.0
"Decatur, AL",2020-06-01,,34.5731,-86.9905,,,186.0
"Chambersburg, PA",2020-06-01,891.2680708791918,39.9315,-77.6556,,0.033688243760867875,833.0
"Vineland, NJ",2020-06-01,,39.4653,-74.9981,,,382.0
"Idaho Falls, ID",2020-06-01,861.6378481913482,43.4871,-112.0362,,0.06747084548754301,128.0
"Grand Junction, CO",2020-06-01,1083.092843217521,39.0877,-108.5673,,0.01739331156239765,198.0
"Elizabethtown, KY",2020-06-01,,37.7031,-85.8773,,,204.0
"Niles, MI",2020-06-01,1143.998826183592,41.8346,-86.2473,,0.03664983449004855,60.0
"Monroe, MI",2020-06-01,,41.9155,-83.3849,,,43.0
"Santa Fe, NM",2020-06-01,1427.8549317136683,35.6619,-105.9819,,0.029475216738591214,56.0
"Concord, NH",2020-06-01,,43.2305,-71.5595,,,186.0
"Alexandria, LA",2020-06-01,,31.2923,-92.4702,,,
"Traverse City, MI",2020-06-01,,44.7546,-85.6038,,,157.0
"Bangor, ME",2020-06-01,1074.1126442489808,44.8323,-68.7906,,0.037125716900687555,157.0
"Homosassa Springs, FL",2020-06-01,1166.3274963077615,28.8119,-82.5392,,0.03838589212450749,102.0
"Hanford, CA",2020-06-01,,36.3274,-119.6549,,,349.0
"Jefferson City, MO",2020-06-01,,38.5676,-92.1759,,,164.0
"Florence, AL",2020-06-01,,34.8303,-87.6655,,,97.0
"Dothan, AL",2020-06-01,,31.2336,-85.407,,,48.0
"London, KY",2020-06-01,,37.1175,-84.0767,,,
"Albany, GA",2020-06-01,681.5146089756461,31.5776,-84.1762,,0.07502507255347712,295.0
"Ottawa, IL",2020-06-01,,41.3555,-88.8261,,,
"Sioux City, IA",2020-06-01,,42.4959,-96.3901,,,79.0
"Wichita Falls, TX",2020-06-01,851.5358067225222,33.9072,-98.5291,,0.054198781439881216,88.0
"Texarkana, TX",2020-06-01,,33.45,-94.0847,,,73.0
"Valdosta, GA",2020-06-01,943.3598673246444,30.8502,-83.2788,,,217.0
"Logan, UT",2020-06-01,,41.7399,-111.8422,,,145.0
"Flagstaff, AZ",2020-06-01,1690.0792518056696,35.1872,-111.6194,,0.030616756332304318,138.0
"Rocky Mount, NC",2020-06-01,,35.9685,-77.804,,,312.0
"Pottsville, PA",2020-06-01,,40.6798,-76.2091,,,262.0
"Lebanon, PA",2020-06-01,,40.3412,-76.4228,,,266.0
"Morristown, TN",2020-06-01,,36.2043,-83.3001,,,
"Winchester, VA",2020-06-01,1302.7646858072137,39.1735,-78.1746,,0.03995326094454876,216.0
"Wheeling, WV",2020-06-01,831.3566081126482,40.0752,-80.6951,,0.0002492858364835371,9.0
"Morgantown, WV",2020-06-01,1206.818492418839,39.6383,-79.9464,,0.01800786593203485,52.0
"La Crosse, WI",2020-06-01,,43.8241,-91.2268,,,44.0
"Napa, CA",2020-06-01,2445.6669501762026,38.2975,-122.301,,0.02282180568063552,87.0
"Rapid City, SD",2020-06-01,971.4756499490884,44.0716,-103.2204,,0.01715967071204827,49.0
"Sumter, SC",2020-06-01,910.596665457033,33.9392,-80.393,,0.05248970994595337,153.0
"Eureka, CA",2020-06-01,,40.7943,-124.1564,,,106.0
"Springfield, OH",2020-06-01,,39.93,-83.7959,,,320.0
"Harrisonburg, VA",2020-06-01,1223.6709139836116,38.4362,-78.8735,,0.031162829419505655,187.0
"Battle Creek, MI",2020-06-01,,42.2985,-85.2296,,,104.0
"Sherman, TX",2020-06-01,1128.022409518722,33.6273,-96.6221,,0.0069904985807272,93.0
"Manhattan, KS",2020-06-01,1008.2597768892958,39.1886,-96.6048,,0.017607958875589746,18.0
"Carbondale, IL",2020-06-01,655.2260143300806,37.7221,-89.2237,,0.039113723428707114,48.0
"Johnstown, PA",2020-06-01,604.4764966579002,40.326,-78.9194,,0.0401340716877614,157.0
"Jonesboro, AR",2020-06-01,961.8451459873748,35.8212,-90.6791,,0.033960448959052814,127.0
"Bismarck, ND",2020-06-01,1092.374385094321,46.8143,-100.7694,,0.03121635175827886,24.0
"Hammond, LA",2020-06-01,,30.5061,-90.4563,,,142.0
"Pittsfield, MA",2020-06-01,,42.4517,-73.2605,,,238.0
"Mount Vernon, WA",2020-06-01,1640.4069919430513,48.4203,-122.3115,,0.05862805658293846,87.0
"Jamestown, NY",2020-06-01,,42.0976,-79.2367,,,
"The Villages, FL",2020-06-01,,28.9034,-81.9887,,,20.0
"Albany, OR",2020-06-01,,44.6272,-123.0965,,,106.0
"Glens Falls, NY",2020-06-01,,43.3109,-73.6458,,,94.0
"Lawton, OK",2020-06-01,714.3694726453166,34.6175,-98.4202,,0.019730222161479016,48.0
"Cleveland, TN",2020-06-01,,35.1817,-84.8707,,,341.0
"Sierra Vista, AZ",2020-06-01,,31.563,-110.3153,,,126.0
"Ames, IA",2020-06-01,885.6219504679331,42.0256,-93.6217,,-0.0014090197921464709,23.0
"Mansfield, OH",2020-06-01,,40.7656,-82.5275,,,
"Staunton, VA",2020-06-01,1042.6349437306649,38.1593,-79.0611,,0.03330743536626146,237.0
"Augusta, ME",2020-06-01,876.1346166508223,44.3341,-69.7319,,0.04104678146615881,185.0
"Altoona, PA",2020-06-01,,40.5082,-78.4007,,,162.0
"New Bern, NC",2020-06-01,,35.0955,-77.0723,,,154.0
"Farmington, NM",2020-06-01,,36.7555,-108.1823,,,
"St. Joseph, MO",2020-06-01,,39.7598,-94.821,,,93.0
"San Angelo, TX",2020-06-01,1027.2669462376132,31.4424,-100.4504,,0.016439075687323612,112.0
"Wenatchee, WA",2020-06-01,,47.436,-120.3295,,,29.0
"Owensboro, KY",2020-06-01,,37.7575,-87.1172,,,
"Holland, MI",2020-06-01,,42.7677,-86.0984,,,173.0
"Lumberton, NC",2020-06-01,,34.6312,-79.0186,,,40.0
"Lawrence, KS",2020-06-01,1162.6023319421065,38.9597,-95.2642,,0.051170108360769184,63.0
"Goldsboro, NC",2020-06-01,,35.3778,-77.9717,,,203.0
"Watertown, NY",2020-06-01,,43.9734,-75.9094,,,31.0
"Sheboygan, WI",2020-06-01,,43.7403,-87.7316,,,54.0
"Weirton, WV",2020-06-01,,40.406,-80.5671,,,111.0
"Missoula, MT",2020-06-01,969.0488381435796,46.8751,-114.0214,,0.025962491068500126,111.0
"Wooster, OH",2020-06-01,,40.8172,-81.9336,,,92.0
"Bozeman, MT",2020-06-01,,45.6833,-111.0558,,,73.0
"Anniston, AL",2020-06-01,,33.6712,-85.8135,,,
"Beckley, WV",2020-06-01,,37.7877,-81.1841,,,30.0
"Williamsport, PA",2020-06-01,,41.2399,-77.037,,,81.0
"Brunswick, GA",2020-06-01,,31.1449,-81.4746,,,62.0
"California, MD",2020-06-01,1301.8953946356994,38.2969,-76.4949,,0.054677438730670325,156.0
"Twin Falls, ID",2020-06-01,,42.5645,-114.4613,,,91.0
"Cookeville, TN",2020-06-01,,36.1482,-85.5109,,,156.0
"Muncie, IN",2020-06-01,686.3768417063718,40.1989,-85.395,,0.001659473691431046,95.0
"Michigan City, IN",2020-06-01,,41.7092,-86.869,,,260.0
"Roseburg, OR",2020-06-01,,43.2231,-123.352,,,
"Lewiston, ME",2020-06-01,,44.0915,-70.1681,,,249.0
"Longview, WA",2020-06-01,,46.1461,-122.963,,,64.0
"Ogdensburg, NY",2020-06-01,,44.7088,-75.4717,,,
"Kankakee, IL",2020-06-01,,41.102,-87.8643,,,327.0
"Bluefield, WV",2020-06-01,,37.2608,-81.2143,,,
"Show Low, AZ",2020-06-01,,34.2671,-110.0384,,,
"Richmond, KY",2020-06-01,807.4288986937402,37.7307,-84.2925,,0.018365470858425992,240.0
"Tullahoma, TN",2020-06-01,,35.3721,-86.2172,,,143.0
"Whitewater, WI",2020-06-01,,42.8372,-88.7341,,,90.0
"Ithaca, NY",2020-06-01,1612.8163994873698,42.4442,-76.5032,,0.04445864760454965,34.0
"Grand Forks, ND",2020-06-01,771.9807272191998,47.9214,-97.0884,,0.017507183630862677,18.0
"Decatur, IL",2020-06-01,,39.8557,-88.9342,,,152.0
"LaGrange, GA",2020-06-01,,33.0274,-85.0384,,,
"Bay City, MI",2020-06-01,,43.5902,-83.8887,,,97.0
"Fond du Lac, WI",2020-06-01,,43.7718,-88.4397,,,69.0
"Gettysburg, PA",2020-06-01,,39.8304,-77.2339,,,183.0
"Gadsden, AL",2020-06-01,,34.0086,-86.0157,,,
"Kalispell, MT",2020-06-01,,48.2153,-114.3274,,,570.0
"Danville, VA",2020-06-01,,36.5831,-79.4088,,,
"Mankato, MN",2020-06-01,,44.1715,-93.9772,,,104.0
"Lima, OH",2020-06-01,,40.741,-84.112,,,41.0
"Truckee, CA",2020-06-01,,39.3455,-120.1848,,,89.0
"Sebring, FL",2020-06-01,943.3856999714768,27.477,-81.453,,0.06557134419130284,139.0
"Cheyenne, WY",2020-06-01,1044.685472714128,41.135,-104.7902,,0.03361382790866774,411.0
"Hot Springs, AR",2020-06-01,,34.4892,-93.0501,,,123.0
"Adrian, MI",2020-06-01,,41.8994,-84.0447,,,
"Shelby, NC",2020-06-01,,35.2904,-81.5451,,,
"Dubuque, IA",2020-06-01,,42.5002,-90.707,,,90.0
"Meridian, MS",2020-06-01,,32.3846,-88.6896,,,
"Pinehurst, NC",2020-06-01,1354.0766376175775,35.1922,-79.4684,,0.030225743962046803,76.0
"Victoria, TX",2020-06-01,,28.8287,-96.9849,,,61.0
"Rome, GA",2020-06-01,,34.2662,-85.1863,,,251.0
"Sevierville, TN",2020-06-01,,35.8872,-83.5678,,,
"Moses Lake, WA",2020-06-01,1135.7918841576948,47.1279,-119.2759,,0.10197496349431279,33.0
"Cape Girardeau, MO",2020-06-01,,37.3109,-89.5597,,,72.0
"Fairbanks, AK",2020-06-01,,64.8353,-147.6533,,,21.0
"Brainerd, MN",2020-06-01,,46.3553,-94.1983,,,
"Cumberland, MD",2020-06-01,,39.6515,-78.7584,,,103.0
"Ocean City, NJ",2020-06-01,,39.2681,-74.602,,,
"Corvallis, OR",2020-06-01,1307.9384531908331,44.5698,-123.2779,,0.015330800988945681,75.0
"Pocatello, ID",2020-06-01,,42.8724,-112.4647,,,45.0
"Corning, NY",2020-06-01,,42.147,-77.0561,,,62.0
"New Philadelphia, OH",2020-06-01,,40.486,-81.4401,,,
"Sunbury, PA",2020-06-01,,40.8616,-76.7871,,,
"Ukiah, CA",2020-06-01,,39.1464,-123.2105,,,
"Hermiston, OR",2020-06-01,,45.8326,-119.2854,,,85.0
"Clarksburg, WV",2020-06-01,,39.2862,-80.3232,,,57.0
"Beaver Dam, WI",2020-06-01,,43.4688,-88.8309,,,30.0
"Pine Bluff, AR",2020-06-01,,34.2116,-92.0173,,,104.0
"Grants Pass, OR",2020-06-01,,42.4333,-123.3317,,,153.0
"Cullman, AL",2020-06-01,,34.1775,-86.8407,,,
"Lufkin, TX",2020-06-01,,31.3217,-94.7277,,,100.0
"Zanesville, OH",2020-06-01,,39.9565,-82.0132,,,285.0
"New Castle, PA",2020-06-01,,40.9956,-80.3458,,,
"Oak Harbor, WA",2020-06-01,1491.0518336509144,48.2964,-122.6333,,0.013004005978620725,168.0
"Orangeburg, SC",2020-06-01,,33.4928,-80.8671,,,
"Watertown, WI",2020-06-01,,43.1893,-88.7285,,,73.0
"Meadville, PA",2020-06-01,,41.6476,-80.1468,,,
"Elmira, NY",2020-06-01,,42.0938,-76.8097,,,390.0
"Great Falls, MT",2020-06-01,845.0677520970477,47.5022,-111.2996,,0.03604742342301104,73.0
"Russellville, AR",2020-06-01,,35.2762,-93.1383,,,61.0
"Indiana, PA",2020-06-01,,40.622,-79.1552,,,4.0
"Midland, MI",2020-06-01,,43.6241,-84.2319,,,56.0
"Kokomo, IN",2020-06-01,664.8235276662939,40.464,-86.1277,,0.03631244402719891,237.0
"Bloomsburg, PA",2020-06-01,,41.0027,-76.4561,,,197.0
"Opelousas, LA",2020-06-01,,30.5252,-92.0816,,,
"Helena, MT",2020-06-01,,46.5965,-112.0202,,,594.0
"Key West, FL",2020-06-01,2498.07513268668,24.5642,-81.7775,,0.0650241613419913,27.0
"Talladega, AL",2020-06-01,,33.4333,-86.0986,,,18.0
"Stillwater, OK",2020-06-01,,36.1317,-97.0742,,,26.0
"Columbus, IN",2020-06-01,995.0505242884724,39.2093,-85.9183,,0.009975049727878549,135.0
"Athens, TX",2020-06-01,,32.2041,-95.8321,,,64.0
"Centralia, WA",2020-06-01,,46.7223,-122.9696,,,
"Manitowoc, WI",2020-06-01,,44.0991,-87.6812,,,
"Hinesville, GA",2020-06-01,1053.0721900069911,31.8248,-81.6137,,0.034519614278603505,144.0
"DuBois, PA",2020-06-01,,41.1223,-78.7565,,,
"Warsaw, IN",2020-06-01,,41.2448,-85.8465,,,48.0
"Statesboro, GA",2020-06-01,,32.4375,-81.7751,,,94.0
"Casper, WY",2020-06-01,970.7997271886974,42.842,-106.3208,,0.029402688617355066,55.0
"Wilson, NC",2020-06-01,,35.7311,-77.9284,,,266.0
"Glenwood Springs, CO",2020-06-01,3284.1044576799204,39.5455,-107.3347,,0.05115956160678592,23.0
"Seneca, SC",2020-06-01,,34.6818,-82.96,,,100.0
"Minot, ND",2020-06-01,,48.2375,-101.278,,,17.0
"Searcy, AR",2020-06-01,,35.2418,-91.7351,,,75.0
"Grand Island, NE",2020-06-01,,40.9218,-98.3586,,,71.0
"Port Angeles, WA",2020-06-01,,48.1141,-123.4565,,,
"Auburn, NY",2020-06-01,,42.9338,-76.5685,,,
"Huntsville, TX",2020-06-01,,30.7009,-95.5567,,,49.0
"Keene, NH",2020-06-01,,42.9494,-72.2998,,,152.0
"Heber, UT",2020-06-01,2087.4040288165684,40.507,-111.3986,,0.012034340407111932,33.0
"Quincy, IL",2020-06-01,,39.9336,-91.3799,,,55.0
"Sandusky, OH",2020-06-01,,41.4468,-82.7024,,,
"Findlay, OH",2020-06-01,,41.0469,-83.6379,,,48.0
"Frankfort, KY",2020-06-01,681.594919113952,38.1924,-84.8643,,0.00767316670144691,205.0
"Danville, IL",2020-06-01,,40.1426,-87.6111,,,
"Aberdeen, WA",2020-06-01,,46.9757,-123.8094,,,
"Jefferson, GA",2020-06-01,,34.1373,-83.6021,,,180.0
"Palatka, FL",2020-06-01,,29.6493,-81.6705,,,
"Shawnee, OK",2020-06-01,,35.3531,-96.9647,,,
"Stevens Point, WI",2020-06-01,,44.5241,-89.5507,,,49.0
"Greeneville, TN",2020-06-01,,36.168,-82.8197,,,
"Greenwood, SC",2020-06-01,,34.1947,-82.1542,,,
"Lake City, FL",2020-06-01,,30.1901,-82.6471,,,147.0
"Klamath Falls, OR",2020-06-01,,42.2195,-121.7754,,,
"Morehead City, NC",2020-06-01,,34.7308,-76.7388,,,132.0
"Clearlake, CA",2020-06-01,,38.9589,-122.633,,,173.0
"Alamogordo, NM",2020-06-01,,32.8837,-105.9625,,,35.0
"Farmington, MO",2020-06-01,,37.7822,-90.4282,,,
"Muskogee, OK",2020-06-01,,35.7432,-95.3567,,,159.0
"Marion, IN",2020-06-01,,40.5497,-85.6604,,,
"Marion, IN",2020-06-01,,39.5884,-85.7587,,,
"Faribault, MN",2020-06-01,,44.2996,-93.2789,,,
"Richmond, IN",2020-06-01,,39.8318,-84.8905,,,86.0
"Marquette, MI",2020-06-01,,46.544,-87.4082,,,
"Mount Pleasant, MI",2020-06-01,,43.5966,-84.7759,,,
"Baraboo, WI",2020-06-01,,43.4695,-89.7376,,,
"Jasper, AL",2020-06-01,,33.8508,-87.271,,,
"Roswell, NM",2020-06-01,,33.373,-104.5294,,,93.0
"Shelton, WA",2020-06-01,,47.2186,-123.1121,,,
"Dublin, GA",2020-06-01,,32.536,-82.928,,,
"Nacogdoches, TX",2020-06-01,,31.6134,-94.6528,,,56.0
"Coos Bay, OR",2020-06-01,,43.3789,-124.233,,,
"Forest City, NC",2020-06-01,,35.3339,-81.8702,,,
"Rexburg, ID",2020-06-01,,43.8226,-111.7919,,,46.0
"Lewiston, ID",2020-06-01,,46.3934,-116.9933,,,
"Laconia, NH",2020-06-01,,43.5725,-71.4775,,,253.0
"Georgetown, SC",2020-06-01,,33.3594,-79.2958,,,
"Athens, OH",2020-06-01,,39.327,-82.0987,,,18.0
"Sanford, NC",2020-06-01,,35.4875,-79.177,,,
"Enid, OK",2020-06-01,,36.4063,-97.87,,,
"Walla Walla, WA",2020-06-01,,46.0671,-118.3368,,,
"Hutchinson, KS",2020-06-01,609.674736122255,38.0671,-97.9081,,0.030133385927628042,49.0
"Hudson, NY",2020-06-01,,42.2515,-73.7859,,,179.0
"Starkville, MS",2020-06-01,,33.4608,-88.8297,,,97.0
"Carlsbad, NM",2020-06-01,,32.401,-104.2388,,,
"Gillette, WY",2020-06-01,,44.2752,-105.4982,,,32.0
"Crossville, TN",2020-06-01,,35.9526,-85.0295,,,
"Granbury, TX",2020-06-01,1238.3745947374434,32.4475,-97.7702,,0.05085729943177175,
"Sayre, PA",2020-06-01,,41.9856,-76.5207,,,185.0
"Salina, KS",2020-06-01,,38.8136,-97.6143,,,
"Marietta, OH",2020-06-01,,39.4241,-81.4465,,,
"Fergus Falls, MN",2020-06-01,,46.2854,-96.0758,,,
"Barre, VT",2020-06-01,,44.1998,-72.5085,,,
"Oneonta, NY",2020-06-01,,42.4551,-75.0666,,,50.0
"Columbus, MS",2020-06-01,,33.5088,-88.4096,,,
"Ardmore, OK",2020-06-01,,34.1949,-97.1256,,,
"Charleston, IL",2020-06-01,,39.4842,-88.1781,,,
"Fernley, NV",2020-06-01,,39.5627,-119.1906,,,108.0
"Carson City, NV",2020-06-01,,39.1511,-119.7476,,,307.0
"Eagle Pass, TX",2020-06-01,,28.7125,-100.484,,,
"Calhoun, GA",2020-06-01,,34.491,-84.9386,,,
"Fairmont, WV",2020-06-01,,39.4768,-80.1491,,,
"Branson, MO",2020-06-01,,36.6509,-93.2636,,,92.0
"Cedar City, UT",2020-06-01,,37.6834,-113.0956,,,181.0
"Waycross, GA",2020-06-01,,31.2108,-82.3579,,,
"Oxford, MS",2020-06-01,,34.3627,-89.5336,,,20.0
"Edwards, CO",2020-06-01,,39.6215,-106.6184,,,33.0
"Durango, CO",2020-06-01,,37.2659,-107.8781,,,117.0
"Danville, KY",2020-06-01,,37.6418,-84.7777,,,
"St. Marys, GA",2020-06-01,,30.7567,-81.5722,,,193.0
"Boone, NC",2020-06-01,,36.2111,-81.6669,,,
"Warrensburg, MO",2020-06-01,721.8870750920179,38.7627,-93.726,,0.01827173513370539,105.0
"Fort Leonard Wood, MO",2020-06-01,,37.7562,-92.1274,,,
"Elizabeth City, NC",2020-06-01,,36.2942,-76.236,,,
"Payson, AZ",2020-06-01,,34.2433,-111.3195,,,
"Athens, TN",2020-06-01,,35.4573,-84.6045,,,
"Enterprise, AL",2020-06-01,938.3518807600628,31.3275,-85.8463,,0.05943074529586001,91.0
"Ashland, OH",2020-06-01,,40.8668,-82.3156,,,89.0
"Scottsboro, AL",2020-06-01,,34.6438,-86.0491,,,
"Milledgeville, GA",2020-06-01,,33.0874,-83.2414,,,
"Kerrville, TX",2020-06-01,,30.0398,-99.132,,,84.0
"Bartlesville, OK",2020-06-01,,36.7365,-95.9456,,,10.0
"Corsicana, TX",2020-06-01,,32.0824,-96.4665,,,
"Galesburg, IL",2020-06-01,,40.9506,-90.3763,,,
"Pahrump, NV",2020-06-01,,36.2235,-115.9974,,,
"Paris, TX",2020-06-01,,33.6688,-95.546,,,
"Winona, MN",2020-06-01,,44.0505,-91.6684,,,58.0
"Newport, OR",2020-06-01,,44.6242,-124.0513,,,
"Shelbyville, TN",2020-06-01,,35.4987,-86.4517,,,
"Amsterdam, NY",2020-06-01,,42.942,-74.1906,,,
"Ozark, AL",2020-06-01,,31.4508,-85.6473,,,53.0
"Gardnerville Ranchos, NV",2020-06-01,,38.8957,-119.7492,,,
"Fort Polk South, LA",2020-06-01,,31.0512,-93.2159,,,
"Ca-Â¦on City, CO",2020-06-01,,,,,,
"New Castle, IN",2020-06-01,,39.9191,-85.3697,,,109.0
"Clovis, NM",2020-06-01,,34.4376,-103.1923,,,
"Norfolk, NE",2020-06-01,,42.0324,-97.4217,,,117.0
"Ruston, LA",2020-06-01,,32.5328,-92.6363,,,34.0
"Pullman, WA",2020-06-01,,46.7336,-117.168,,,62.0
"Blackfoot, ID",2020-06-01,,43.194,-112.3454,,,
"Kendallville, IN",2020-06-01,,41.4441,-85.2578,,,
"Montrose, CO",2020-06-01,,38.4689,-107.859,,,60.0
"Cortland, NY",2020-06-01,,42.6004,-76.1784,,,179.0
"Mount Sterling, KY",2020-06-01,,38.0648,-83.9472,,,
"Sandpoint, ID",2020-06-01,,48.2822,-116.5614,,,
"Bardstown, KY",2020-06-01,,37.8175,-85.455,,,
"Bemidji, MN",2020-06-01,,47.4828,-94.8797,,,
"Durant, OK",2020-06-01,,33.9949,-96.3923,,,
"Cornelia, GA",2020-06-01,,34.517,-83.5311,,,
"Thomasville, GA",2020-06-01,,30.8394,-83.9782,,,
"Paragould, AR",2020-06-01,,36.0555,-90.5149,,,
"Burlington, IA",2020-06-01,,40.8071,-91.1247,,,
"Menomonie, WI",2020-06-01,,44.8893,-91.9084,,,149.0
"Freeport, IL",2020-06-01,,42.2891,-89.6346,,,
"Rolla, MO",2020-06-01,,37.9459,-91.7607,,,47.0
"Marion, NC",2020-06-01,,35.6777,-82.0017,,,
"Ellensburg, WA",2020-06-01,,46.9999,-120.5475,,,101.0
"Ponca City, OK",2020-06-01,,36.7235,-97.0677,,,
"Lewisburg, PA",2020-06-01,,40.9641,-76.8901,,,
"Auburn, IN",2020-06-01,,41.3666,-85.0559,,,
"Duncan, OK",2020-06-01,,34.5408,-97.9215,,,
"Sedalia, MO",2020-06-01,,38.7059,-93.234,,,158.0
"Henderson, NC",2020-06-01,,36.3256,-78.4151,,,
"Aberdeen, SD",2020-06-01,,45.4649,-98.4686,,,
"Rock Springs, WY",2020-06-01,893.9068461214102,41.5947,-109.2209,,,74.0
"Stephenville, TX",2020-06-01,,32.2147,-98.2205,,,68.0
"Mountain Home, AR",2020-06-01,,36.3351,-92.384,,,
"Gainesville, TX",2020-06-01,,33.639,-97.1487,,,
"Astoria, OR",2020-06-01,,46.1856,-123.8053,,,147.0
"Bradford, PA",2020-06-01,,41.9605,-78.6412,,,
"Marshalltown, IA",2020-06-01,,42.0343,-92.9068,,,
"Big Rapids, MI",2020-06-01,,43.6992,-85.4806,,,
"Austin, MN",2020-06-01,,43.6721,-92.9784,,,
"Selinsgrove, PA",2020-06-01,,40.8003,-76.8646,,,
"Okeechobee, FL",2020-06-01,,27.2413,-80.8298,,,
"Moscow, ID",2020-06-01,,46.7308,-116.9986,,,
"Riverton, WY",2020-06-01,,43.0421,-108.4144,,,
"Pittsburg, KS",2020-06-01,,37.4129,-94.6985,,,
"Alexandria, MN",2020-06-01,,45.8776,-95.3767,,,
"Williston, ND",2020-06-01,,48.1814,-103.6364,,,19.0
"Ada, OK",2020-06-01,,34.7662,-96.6681,,,
"Crawfordsville, IN",2020-06-01,,40.0428,-86.8976,,,
"Lock Haven, PA",2020-06-01,,41.1365,-77.4521,,,
"Easton, MD",2020-06-01,,38.776,-76.0701,,,
"Laramie, WY",2020-06-01,,41.3099,-105.6085,,,243.0
"Fremont, NE",2020-06-01,,41.4395,-96.4873,,,55.0
"Fort Dodge, IA",2020-06-01,,42.5098,-94.1751,,,
"Dyersburg, TN",2020-06-01,,36.0465,-89.3777,,,
"DeRidder, LA",2020-06-01,,30.8468,-93.2931,,,
"Bay City, TX",2020-06-01,,28.9838,-95.9601,,,
"North Platte, NE",2020-06-01,,41.1263,-100.7641,,,
"Butte, MT",2020-06-01,,45.902,-112.6571,,,
"Emporia, KS",2020-06-01,,38.4028,-96.1932,,,
"Jackson, WY",2020-06-01,,43.472,-110.7746,,,100.0
"Brookings, SD",2020-06-01,,44.3022,-96.7859,,,81.0
"Dickinson, ND",2020-06-01,,46.8918,-102.7925,,,
"Pella, IA",2020-06-01,,41.4052,-92.9189,,,
"Frankfort, IN",2020-06-01,,40.281,-86.5212,,,
"Brevard, NC",2020-06-01,,35.2438,-82.7265,,,
"Kingsville, TX",2020-06-01,,27.5094,-97.861,,,
"Breckenridge, CO",2020-06-01,,39.4995,-106.0432,,,43.0
"McPherson, KS",2020-06-01,,38.3714,-97.6605,,,
"Kirksville, MO",2020-06-01,,40.1986,-92.5752,,,53.0
"Mountain Home, ID",2020-06-01,,43.1324,-115.697,,,
"Fredericksburg, TX",2020-06-01,,30.266,-98.8751,,,
"Great Bend, KS",2020-06-01,,38.3593,-98.8015,,,
"Altus, OK",2020-06-01,,34.6565,-99.3061,,,
"Hailey, ID",2020-06-01,,43.5141,-114.3001,,,
"Steamboat Springs, CO",2020-06-01,,40.4777,-106.8243,,,
"Prineville, OR",2020-06-01,,44.2985,-120.8607,,,
"Rockport, TX",2020-06-01,,28.029,-97.0722,,,
"Hood River, OR",2020-06-01,,45.7092,-121.526,,,
"Mitchell, SD",2020-06-01,,43.7294,-98.0337,,,
"Wahpeton, ND",2020-06-01,,46.2722,-96.6118,,,
"Jamestown, ND",2020-06-01,,46.9063,-98.6937,,,
"Portales, NM",2020-06-01,,34.1754,-103.3565,,,
"Brownsville, TN",2020-06-01,,35.589,-89.2578,,,
"New York, NY",2020-07-01,2532.387376284604,40.6943,-73.9249,19498249.0,-0.010580081685480636,51.0
"Los Angeles, CA",2020-07-01,2315.353698007909,34.1141,-118.4068,12799100.0,0.003537719594755906,132.0
"Chicago, IL",2020-07-01,1568.5206602782127,41.8375,-87.6866,9262825.0,0.007186692901930192,91.0
"Dallas, TX",2020-07-01,1361.694301337884,32.7935,-96.7667,8100037.0,0.011293257949023028,104.0
"Houston, TX",2020-07-01,1367.0066561765595,29.786,-95.3885,7510253.0,0.0013826428024521498,45.0
"Washington, DC",2020-07-01,1937.59915030257,38.9047,-77.0163,6304975.0,0.006057116722987255,97.0
"Philadelphia, PA",2020-07-01,1463.457983066552,40.0077,-75.1339,6246160.0,0.02209051572732368,223.0
"Miami, FL",2020-07-01,1756.855412365455,25.784,-80.2101,6183199.0,0.018089353452764412,32.0
"Atlanta, GA",2020-07-01,1408.57455355705,33.7628,-84.422,6307261.0,0.032026156170784414,228.0
"Boston, MA",2020-07-01,2370.271449790585,42.3188,-71.0852,4919179.0,0.005341245780593695,37.0
"Phoenix, AZ",2020-07-01,1332.9270395709132,33.5722,-112.0892,5070110.0,0.052858150875745524,195.0
"San Francisco, CA",2020-07-01,2803.671854692424,37.7558,-122.4449,4566961.0,-0.003169373838025291,94.0
"Riverside, CA",2020-07-01,1772.5258203944982,33.9381,-117.3949,4688053.0,0.034464222759452046,423.0
"Detroit, MI",2020-07-01,1091.756610963994,42.3834,-83.1024,4342304.0,0.028608468665169973,275.0
"Seattle, WA",2020-07-01,1820.1471462495049,47.6211,-122.3244,4044837.0,0.01802404997495799,104.0
"Minneapolis, MN",2020-07-01,1442.1810805256548,44.9635,-93.2678,3712020.0,0.018820290011535956,127.0
"San Diego, CA",2020-07-01,2146.5843960881875,32.8313,-117.1222,3269973.0,0.011674063105977073,159.0
"Tampa, FL",2020-07-01,1368.7713230090772,27.9945,-82.4447,3342963.0,0.029525845670805184,126.0
"Denver, CO",2020-07-01,1580.195496829644,39.762,-104.8758,3005131.0,-0.001365402592960585,131.0
"Baltimore, MD",2020-07-01,1466.703733257115,39.3051,-76.6144,2834316.0,0.009411310318927057,132.0
"St. Louis, MO",2020-07-01,1021.9004197305444,38.6359,-90.2451,2796999.0,0.03163984100877326,185.0
"Orlando, FL",2020-07-01,1456.747604630976,28.4773,-81.337,2817933.0,0.010602262176922173,117.0
"Charlotte, NC",2020-07-01,1318.330999464882,35.2083,-80.8303,2805115.0,0.01853056757556515,150.0
"San Antonio, TX",2020-07-01,1206.8059861378372,29.4632,-98.5238,2703999.0,0.012311397506550303,98.0
"Portland, OR",2020-07-01,1485.429012023371,45.5371,-122.65,2508050.0,0.011707214855816384,128.0
"Sacramento, CA",2020-07-01,1763.7686196787602,38.5677,-121.4685,2420608.0,0.027011184005489408,345.0
"Pittsburgh, PA",2020-07-01,1150.464721603205,40.4397,-79.9763,2422725.0,0.03153713500047961,105.0
"Cincinnati, OH",2020-07-01,1122.5738886068928,39.1413,-84.506,2271479.0,0.04652624297197239,171.0
"Austin, TX",2020-07-01,1424.4808095076264,30.3005,-97.7522,2473275.0,0.008429573361858456,58.0
"Las Vegas, NV",2020-07-01,1305.7578707059367,36.2333,-115.2654,2336573.0,0.013670188838448283,215.0
"Kansas City, MO",2020-07-01,1077.4795771585875,39.1238,-94.5541,2221343.0,0.0398770145483367,155.0
"Columbus, OH",2020-07-01,1123.0392703561606,39.9862,-82.9855,2180271.0,0.038220620189466814,160.0
"Indianapolis, IN",2020-07-01,1126.7238861771125,39.7771,-86.1458,2138468.0,0.050834203768902464,161.0
"Cleveland, OH",2020-07-01,1001.7089803929988,41.4764,-81.6805,2063132.0,0.042059353570071734,246.0
"San Jose, CA",2020-07-01,2939.9900399524936,37.3012,-121.848,1945767.0,-0.010805040682314693,95.0
"Nashville, TN",2020-07-01,1456.7864456789011,36.1715,-86.7842,2102573.0,0.024004064426400795,78.0
"Virginia Beach, VA",2020-07-01,1253.1053111089266,36.7335,-76.0435,1787169.0,0.026020207465356826,301.0
"Providence, RI",2020-07-01,1446.9375057822149,41.823,-71.4187,1677803.0,0.03920327495613418,316.0
"Jacksonville, FL",2020-07-01,1244.869923337048,30.3322,-81.6749,1713240.0,0.02667594986169619,126.0
"Milwaukee, WI",2020-07-01,1043.9855300410409,43.0642,-87.9675,1560424.0,0.026180246258248552,188.0
"Oklahoma City, OK",2020-07-01,1054.9667256482142,35.4676,-97.5136,1477926.0,0.023416661284068496,84.0
"Raleigh, NC",2020-07-01,1336.8769916745844,35.8324,-78.6429,1509231.0,0.01817611032674349,133.0
"Memphis, TN",2020-07-01,1082.059062693853,35.1087,-89.9663,1335674.0,0.06465993969812112,230.0
"Richmond, VA",2020-07-01,1214.0712676730568,37.5295,-77.4756,1349732.0,0.029976426780427445,203.0
"Louisville, KY",2020-07-01,1034.017989641544,38.1663,-85.6485,1365557.0,0.02921845828371339,151.0
"New Orleans, LA",2020-07-01,1262.8483409050637,30.0687,-89.9288,962165.0,0.022247208762861126,89.0
"Salt Lake City, UT",2020-07-01,1256.0350794591018,40.7776,-111.9311,1267864.0,0.01818490866011291,112.0
"Hartford, CT",2020-07-01,1323.2565957087288,41.7661,-72.6834,1151543.0,0.02010172371045038,183.0
"Buffalo, NY",2020-07-01,993.1111949292232,42.9018,-78.8487,1155604.0,0.054021920698084536,231.0
"Birmingham, AL",2020-07-01,1040.5932715507029,33.5279,-86.7971,1184290.0,0.0262477347239487,84.0
"Rochester, NY",2020-07-01,1068.8308850952926,43.168,-77.6162,1052087.0,0.01954952384022124,184.0
"Grand Rapids, MI",2020-07-01,1238.8568103559762,42.9619,-85.6562,1162950.0,0.0363471687340724,204.0
"Tucson, AZ",2020-07-01,1151.0960962405304,32.1541,-110.8787,1063162.0,0.04438747875835336,175.0
"Urban Honolulu, HI",2020-07-01,2132.856567229465,,,989408.0,0.0007716585766399664,115.0
"Tulsa, OK",2020-07-01,1034.7498657626322,36.1283,-95.9042,,0.03720260337704251,100.0
"Fresno, CA",2020-07-01,1427.7060055749926,36.783,-119.7939,,0.042244391853722085,445.0
"Worcester, MA",2020-07-01,1416.9472673800817,42.2705,-71.8079,,0.05098125695020195,318.0
"Omaha, NE",2020-07-01,1021.0192340695364,41.2627,-96.0529,,0.042144533371381465,132.0
"Bridgeport, CT",2020-07-01,2046.4859711233787,41.1918,-73.1954,,0.03830283814698743,149.0
"Greenville, SC",2020-07-01,1148.5726517995745,34.8354,-82.3646,,0.016549786406986566,120.0
"Albuquerque, NM",2020-07-01,1062.5769597986596,35.1054,-106.6465,,0.0367039352308538,195.0
"Bakersfield, CA",2020-07-01,1223.561163362293,35.3529,-119.0359,,0.049262789152406006,556.0
"Albany, NY",2020-07-01,1204.1765591944445,42.6664,-73.7987,,0.017709935753944306,110.0
"Knoxville, TN",2020-07-01,1141.5049354877776,35.9692,-83.9496,,0.040412899866684615,206.0
"Baton Rouge, LA",2020-07-01,1112.7210432066436,30.442,-91.1311,,0.002514776023969434,74.0
"McAllen, TX",2020-07-01,902.7914106476388,26.2252,-98.2467,,0.021238732517989023,37.0
"New Haven, CT",2020-07-01,1362.3424739540585,41.3113,-72.9246,,0.03997227433082373,204.0
"El Paso, TX",2020-07-01,1092.9187997705912,31.8476,-106.43,,0.05131914308206831,183.0
"Allentown, PA",2020-07-01,1250.7752284807627,40.5961,-75.4756,,0.030883882732739787,364.0
"Oxnard, CA",2020-07-01,2279.4631785216484,34.1964,-119.1815,,0.01585693243179942,146.0
"Columbia, SC",2020-07-01,1130.0886258892936,34.0378,-80.9036,,0.03797923214633636,151.0
"North Port, FL",2020-07-01,1506.8224454623476,27.0576,-82.1977,,0.022339536248002112,43.0
"Dayton, OH",2020-07-01,947.6241196968564,39.7805,-84.2003,,0.06514766381687842,268.0
"Charleston, SC",2020-07-01,1353.6843823124416,32.8168,-79.9687,,0.009932388243308443,72.0
"Greensboro, NC",2020-07-01,1040.8447398910314,36.0956,-79.8271,,0.0462926418299896,329.0
"Stockton, CA",2020-07-01,1790.0212378323515,37.9765,-121.3109,,0.04940290700090344,798.0
"Cape Coral, FL",2020-07-01,1388.8150772115068,26.6443,-81.9957,,0.02801860817171864,45.0
"Boise City, ID",2020-07-01,1303.9378193395432,,,,0.04007309304763251,150.0
"Colorado Springs, CO",2020-07-01,1415.0770105653526,38.8674,-104.7605,,0.04104167719402252,208.0
"Little Rock, AR",2020-07-01,940.2062858526944,34.7256,-92.3577,,0.030301448473806225,149.0
"Lakeland, FL",2020-07-01,1345.2486078796512,28.0557,-81.9545,,0.048209703156886,218.0
"Akron, OH",2020-07-01,894.4618160472769,41.0798,-81.5219,,0.05404302815976281,259.0
"Des Moines, IA",2020-07-01,1062.5530092036515,41.5725,-93.6105,,0.011515348893080368,42.0
"Springfield, MA",2020-07-01,1226.0272756901024,42.1155,-72.5395,,0.03733582319338802,251.0
"Poughkeepsie, NY",2020-07-01,1543.446556764628,41.695,-73.9211,,0.06623854934501705,180.0
"Ogden, UT",2020-07-01,1208.33901788494,41.2279,-111.9682,,0.045000403079697104,100.0
"Madison, WI",2020-07-01,1345.879350758587,43.0822,-89.393,,0.028655319266492896,55.0
"Winston, NC",2020-07-01,1084.8333646722515,,,,0.039690139212497755,202.0
"Deltona, FL",2020-07-01,1325.8207025007937,28.905,-81.2137,,0.03748009288885634,108.0
"Syracuse, NY",2020-07-01,1083.4307940173048,43.0407,-76.1437,,0.053172522785838616,158.0
"Provo, UT",2020-07-01,1340.4528580288809,40.2457,-111.6457,,0.019524465820023762,84.0
"Toledo, OH",2020-07-01,868.7067630175978,41.6638,-83.5827,,0.03972744421979968,223.0
"Wichita, KS",2020-07-01,852.5593138811876,37.6895,-97.3443,,0.040533306867831076,173.0
"Durham, NC",2020-07-01,1285.9964654318355,35.9792,-78.9022,,0.014977910645760373,90.0
"Augusta, GA",2020-07-01,1011.5763165153988,33.3645,-82.0708,,0.05338015144840158,239.0
"Palm Bay, FL",2020-07-01,1383.0277793273365,27.9631,-80.6593,,0.030664294382692248,87.0
"Jackson, MS",2020-07-01,1074.5904592996303,32.3157,-90.2125,,0.0350942789822537,139.0
"Harrisburg, PA",2020-07-01,1039.8653509371625,40.2752,-76.8843,,0.0414508887394518,245.0
"Spokane, WA",2020-07-01,1086.6370634389202,47.6671,-117.433,,0.04990913410182385,94.0
"Scranton, PA",2020-07-01,912.261094079574,41.4044,-75.6649,,0.04810342844957116,349.0
"Chattanooga, TN",2020-07-01,1092.426246850736,35.066,-85.2481,,0.04293238805495525,156.0
"Modesto, CA",2020-07-01,1495.5065980212037,37.6375,-121.0028,,0.056269971098769966,802.0
"Lancaster, PA",2020-07-01,1006.391518102022,40.042,-76.3012,,0.042119543927264136,319.0
"Portland, ME",2020-07-01,1604.2358063624004,43.6773,-70.2715,,0.044914706658079506,172.0
"Youngstown, OH",2020-07-01,727.4898032153147,41.0993,-80.6463,,0.060212242158329765,107.0
"Lansing, MI",2020-07-01,1014.80454818385,42.7142,-84.5601,,0.05140314711826521,161.0
"Fayetteville, AR",2020-07-01,1144.0577115511392,36.0714,-94.1661,,0.0317345770058981,73.0
"Fayetteville, NC",2020-07-01,983.8315049223452,35.085,-78.9772,,0.055385065801368594,517.0
"Lexington, KY",2020-07-01,1019.8559508592788,38.0423,-84.4587,,0.023771532481788205,136.0
"Pensacola, FL",2020-07-01,1215.4159785057604,30.4413,-87.1911,,0.06129668442573877,287.0
"Santa Rosa, CA",2020-07-01,2178.9580988779103,38.4458,-122.7067,,0.005248889816014124,121.0
"Reno, NV",2020-07-01,1447.1707374933285,39.5497,-119.8483,,0.015196743092324994,203.0
"Huntsville, AL",2020-07-01,1093.45398613653,34.6981,-86.6412,,0.10632342750259771,217.0
"Port St. Lucie, FL",2020-07-01,1519.4317341004758,27.2796,-80.3884,,0.03597812523208854,68.0
"Lafayette, LA",2020-07-01,992.505281100642,30.2082,-92.0325,,0.010341989169648569,67.0
"Myrtle Beach, SC",2020-07-01,1217.234944991599,33.7094,-78.8844,,0.024975798800412452,126.0
"Springfield, MO",2020-07-01,887.1466777457015,37.1943,-93.2916,,0.05822203594232089,159.0
"Visalia, CA",2020-07-01,1242.36374940286,36.3276,-119.3269,,0.04039118278960796,362.0
"Killeen, TX",2020-07-01,970.0809736204898,31.0753,-97.7297,,0.04056827418705233,220.0
"Asheville, NC",2020-07-01,1281.025142612805,35.5707,-82.5537,,0.02453323047262601,145.0
"York, PA",2020-07-01,978.6702853196394,39.9651,-76.7315,,0.03679068430156551,191.0
"Vallejo, CA",2020-07-01,1975.248486275784,38.1125,-122.2342,,0.016173625825945726,323.0
"Santa Maria, CA",2020-07-01,2498.983084083828,34.9333,-120.4431,,0.031386034039165844,64.0
"Salinas, CA",2020-07-01,2041.8051668685475,36.6883,-121.6317,,0.020324833546450316,137.0
"Salem, OR",2020-07-01,1217.534715627026,44.9233,-123.0244,,0.0301286474375293,132.0
"Mobile, AL",2020-07-01,891.3320877063632,30.6782,-88.1162,,0.02137267886005967,162.0
"Reading, PA",2020-07-01,926.8459138798988,40.34,-75.9267,,0.0513319647263446,355.0
"Corpus Christi, TX",2020-07-01,1237.405375417438,27.7254,-97.3767,,0.02441221033586305,88.0
"Brownsville, TX",2020-07-01,1015.4909010387032,25.9975,-97.458,,0.033321545442134504,81.0
"Manchester, NH",2020-07-01,1388.4512973561912,42.9848,-71.4447,,0.037043198847547476,255.0
"Fort Wayne, IN",2020-07-01,779.9118986096635,41.0888,-85.1436,,0.02315719422787277,213.0
"Gulfport, MS",2020-07-01,1019.764998479575,30.4274,-89.0704,,0.07019843575124818,141.0
"Salisbury, MD",2020-07-01,1307.5483767022358,38.3756,-75.5865,,0.03668955899912607,211.0
"Flint, MI",2020-07-01,805.4325223825241,43.0236,-83.6921,,0.0582885047532542,146.0
"Peoria, IL",2020-07-01,772.1782420347799,40.752,-89.6154,,0.030888086377053314,98.0
"Canton, OH",2020-07-01,764.1477543119979,40.8078,-81.3676,,0.052114507331768145,280.0
"Savannah, GA",2020-07-01,1214.0200907740027,32.0286,-81.1821,,0.018590260225725963,82.0
"Anchorage, AK",2020-07-01,1319.3643842028753,61.1508,-149.1091,,0.010027938584405094,73.0
"Beaumont, TX",2020-07-01,969.7986839499766,30.0849,-94.1451,,0.05456173272423026,47.0
"Shreveport, LA",2020-07-01,1006.9158267911496,32.4653,-93.7955,,0.02857427104635213,99.0
"Trenton, NJ",2020-07-01,1758.3367476851645,40.2237,-74.7641,,0.02580206931672202,156.0
"Montgomery, AL",2020-07-01,951.1341085550512,32.3482,-86.2668,,0.019983631683458958,135.0
"Davenport, IA",2020-07-01,794.619726266754,41.5565,-90.6053,,0.021095366939368754,50.0
"Tallahassee, FL",2020-07-01,1028.663543660885,30.4551,-84.2527,,0.022815684559665206,120.0
"Eugene, OR",2020-07-01,1309.5493032402362,44.0564,-123.1174,,0.03258151934871267,116.0
"Naples, FL",2020-07-01,1940.3638791084177,26.1504,-81.7936,,0.03155467034231174,10.0
"Ann Arbor, MI",2020-07-01,1633.488375936336,42.2759,-83.731,,0.013690685568250593,53.0
"Ocala, FL",2020-07-01,1097.4019635050518,29.178,-82.1511,,0.05652528597342443,250.0
"Hickory, NC",2020-07-01,,35.741,-81.3223,,,193.0
"Huntington, WV",2020-07-01,757.8813097374205,38.4109,-82.4345,,0.04193978065095516,75.0
"Fort Collins, CO",2020-07-01,1530.5948680198185,40.5477,-105.0656,,0.01699922122033981,95.0
"Rockford, IL",2020-07-01,868.2733830955844,42.2596,-89.064,,0.04240711541242259,223.0
"Lincoln, NE",2020-07-01,951.1952910208146,40.8099,-96.6784,,0.025901524048842495,107.0
"Gainesville, FL",2020-07-01,1224.7709260116185,29.6804,-82.3459,,0.04924670961535771,71.0
"Boulder, CO",2020-07-01,1959.787765697561,40.0248,-105.2524,,0.010221105815030995,85.0
"Green Bay, WI",2020-07-01,,44.5148,-87.9895,,,135.0
"Columbus, GA",2020-07-01,917.4831146363142,32.51,-84.8771,,0.08566720311448939,286.0
"South Bend, IN",2020-07-01,873.6928260643439,41.6767,-86.2696,,0.04845301636399757,282.0
"Spartanburg, SC",2020-07-01,1063.04000540998,34.9442,-81.9251,,0.0389757762427132,192.0
"Greeley, CO",2020-07-01,1464.428078942514,40.4152,-104.7706,,0.018689049967251625,82.0
"Lubbock, TX",2020-07-01,1108.9821686314565,33.5657,-101.8879,,0.029435406739068304,73.0
"Clarksville, TN",2020-07-01,995.282431996443,36.5692,-87.3413,,0.04880987800341252,157.0
"Roanoke, VA",2020-07-01,968.2488380073432,37.2785,-79.9581,,0.022695524325587746,161.0
"Evansville, IN",2020-07-01,705.8889949612667,37.9881,-87.5341,,0.0344323157308295,205.0
"Kingsport, TN",2020-07-01,,36.5224,-82.5454,,,123.0
"Kennewick, WA",2020-07-01,1242.2291935673334,46.1978,-119.1732,,0.024214540035210064,87.0
"Utica, NY",2020-07-01,,43.0962,-75.2261,,,120.0
"Hagerstown, MD",2020-07-01,1071.0405158794672,39.6401,-77.7217,,0.047901135485839186,287.0
"Duluth, MN",2020-07-01,1207.0060992986316,46.7756,-92.1393,,0.028370122179405266,66.0
"Olympia, WA",2020-07-01,1483.104928176415,47.0417,-122.8959,,0.04828288524291269,84.0
"Longview, TX",2020-07-01,846.2634799844471,32.5193,-94.7622,,0.02845442301446921,96.0
"Wilmington, NC",2020-07-01,1261.5123515580829,34.2099,-77.8866,,0.05726753895096581,111.0
"San Luis Obispo, CA",2020-07-01,2023.201472803754,35.2669,-120.669,,0.017238570076809623,71.0
"Crestview, FL",2020-07-01,1374.8414224015637,30.7477,-86.5785,,0.032838090127443875,121.0
"Merced, CA",2020-07-01,1393.4513666986757,37.3057,-120.4779,,0.0332908124305662,383.0
"Waco, TX",2020-07-01,1151.048750991245,31.5599,-97.1882,,0.05135846437071545,92.0
"Cedar Rapids, IA",2020-07-01,857.8807832718295,41.9662,-91.6783,,0.020137528607494293,67.0
"Atlantic City, NJ",2020-07-01,1200.9383879218983,39.3797,-74.4527,,0.01879143131738803,187.0
"Bremerton, WA",2020-07-01,1560.4595405231737,47.5436,-122.7121,,0.011381756757006034,70.0
"Sioux Falls, SD",2020-07-01,941.5948345930162,43.5396,-96.7311,,0.04073309412447057,26.0
"Santa Cruz, CA",2020-07-01,2600.387330014727,36.9789,-122.0346,,0.011681871939567268,137.0
"Erie, PA",2020-07-01,685.1306129483262,42.1167,-80.0733,,0.001355650315061574,137.0
"Norwich, CT",2020-07-01,1220.649295785311,41.5495,-72.0882,,0.03056647068644569,163.0
"Amarillo, TX",2020-07-01,1026.8694713321645,35.1984,-101.8316,,0.02945172000197549,102.0
"Laredo, TX",2020-07-01,989.2442805618748,27.5625,-99.4874,,0.0034766023617442965,31.0
"Tuscaloosa, AL",2020-07-01,1181.6691193232252,33.2348,-87.5268,,0.02782692657927588,50.0
"College Station, TX",2020-07-01,1523.751451876623,30.5852,-96.2959,,0.016414886913196147,21.0
"Kalamazoo, MI",2020-07-01,1039.771423804067,42.2749,-85.5882,,0.04146268609036263,123.0
"Lynchburg, VA",2020-07-01,932.6081414867264,37.4003,-79.1909,,0.03298824574074599,133.0
"Charleston, WV",2020-07-01,733.4019418978505,38.3484,-81.6322,,0.03290057887879061,119.0
"Yakima, WA",2020-07-01,,46.5923,-120.5496,,,
"Fargo, ND",2020-07-01,997.5864480021196,46.8651,-96.8292,,0.02442325928475486,27.0
"Binghamton, NY",2020-07-01,875.9534564583167,42.1014,-75.9093,,-0.003217988249243353,101.0
"Fort Smith, AR",2020-07-01,677.2800678229736,35.3495,-94.3695,,0.037728077949192196,86.0
"Appleton, WI",2020-07-01,,44.278,-88.3892,,,127.0
"Prescott Valley, AZ",2020-07-01,1363.038518857246,34.598,-112.3185,,0.03377308479874297,
"Topeka, KS",2020-07-01,792.9236230070898,39.0346,-95.6955,,0.005544646577791967,86.0
"Macon, GA",2020-07-01,812.1175560257367,32.8065,-83.6974,,0.030229783738096483,351.0
"Tyler, TX",2020-07-01,1122.3012060516553,32.3184,-95.3062,,0.010567627054694384,89.0
"Barnstable Town, MA",2020-07-01,1842.8962387911151,,,,0.1391495156128688,230.0
"Daphne, AL",2020-07-01,1306.8475385782026,30.6263,-87.8816,,0.025244931401652515,62.0
"Bellingham, WA",2020-07-01,1476.1472225528848,48.7548,-122.469,,0.05734663075134172,131.0
"Burlington, VT",2020-07-01,1771.0650922295165,44.4876,-73.2316,,0.03876801865391033,193.0
"Rochester, MN",2020-07-01,1340.3205955951253,44.0154,-92.478,,0.01127520957968442,60.0
"Lafayette, IN",2020-07-01,1136.4024807653525,40.3991,-86.8593,,0.031462213490825564,82.0
"Champaign, IL",2020-07-01,998.5388753254636,40.1142,-88.2737,,0.008205941466816746,51.0
"Medford, OR",2020-07-01,1380.0328777359207,42.3372,-122.854,,0.009776876345241714,114.0
"Lebanon, NH",2020-07-01,1476.8968224835353,43.6353,-72.2531,,0.08445316940477388,
"Charlottesville, VA",2020-07-01,1403.4932015989434,38.0375,-78.4855,,0.02341264150653366,57.0
"Lake Charles, LA",2020-07-01,902.0082426455172,30.201,-93.2111,,-0.04207033121727133,34.0
"Las Cruces, NM",2020-07-01,1026.561237194319,32.3265,-106.7893,,0.044737072610992135,189.0
"Chico, CA",2020-07-01,1332.059672248688,39.7578,-121.8161,,0.019336352584469196,106.0
"Hilton Head Island, SC",2020-07-01,1384.2630191024489,32.1896,-80.7499,,0.007316422068558204,65.0
"Athens, GA",2020-07-01,1321.06131178297,33.9508,-83.3689,,0.06564207859341065,115.0
"Lake Havasu City, AZ",2020-07-01,1129.740806206115,34.5006,-114.3113,,0.06489130664449227,229.0
"Columbia, MO",2020-07-01,809.6649963517558,38.9472,-92.3268,,0.02056015315345916,48.0
"Springfield, IL",2020-07-01,815.082899095396,39.7709,-89.654,,0.011935397257975877,107.0
"Houma, LA",2020-07-01,,29.58,-90.7059,,,66.0
"Monroe, LA",2020-07-01,,32.5185,-92.0774,,,83.0
"Elkhart, IN",2020-07-01,,41.6916,-85.9627,,,154.0
"Johnson City, TN",2020-07-01,875.1978255868875,36.3406,-82.3806,,0.03407027230571402,210.0
"Yuma, AZ",2020-07-01,,32.5995,-114.5491,,,282.0
"Gainesville, GA",2020-07-01,1243.4871168239406,34.2902,-83.8294,,0.0325785505836258,161.0
"Jacksonville, NC",2020-07-01,982.5887051070667,34.7289,-77.3941,,0.01766345075972464,210.0
"Florence, SC",2020-07-01,1086.637977184084,34.178,-79.7898,,0.04348266384681709,138.0
"Hilo, HI",2020-07-01,,19.6883,-155.0863,,,
"St. Cloud, MN",2020-07-01,982.7465171491216,45.534,-94.1718,,0.0009050941519284095,62.0
"Racine, WI",2020-07-01,991.4058826537694,42.7274,-87.8135,,0.05397244933914025,251.0
"Bend, OR",2020-07-01,1631.0789672346343,44.0563,-121.3095,,0.0410595624161878,196.0
"Saginaw, MI",2020-07-01,,43.4199,-83.9501,,,68.0
"Warner Robins, GA",2020-07-01,1074.6119222634795,32.5961,-83.6527,,0.042409418888027295,577.0
"Terre Haute, IN",2020-07-01,,39.466,-87.3751,,,64.0
"Torrington, CT",2020-07-01,1107.992407869645,41.8349,-73.1282,,0.0783630367052508,132.0
"Punta Gorda, FL",2020-07-01,1702.095337831895,26.8941,-82.0513,,0.04996217705090222,39.0
"Billings, MT",2020-07-01,1007.94269968706,45.7891,-108.5526,,0.030097863223710775,149.0
"Redding, CA",2020-07-01,1190.205128838359,40.5698,-122.365,,0.059632289502004054,197.0
"Kingston, NY",2020-07-01,1511.1409412542969,41.9295,-73.9968,,0.047256670499458364,326.0
"Panama City, FL",2020-07-01,1349.2793879790422,30.1995,-85.6003,,-0.0623058236798939,86.0
"Joplin, MO",2020-07-01,,37.0757,-94.5018,,,152.0
"Dover, DE",2020-07-01,1201.0677096105817,39.161,-75.5202,,0.020442149630964357,482.0
"El Centro, CA",2020-07-01,,32.7865,-115.5595,,,239.0
"Jackson, TN",2020-07-01,,35.6538,-88.8354,,,253.0
"Yuba City, CA",2020-07-01,1541.562944427548,39.1357,-121.6383,,0.04684002100966089,303.0
"Bowling Green, KY",2020-07-01,1020.7708661879616,36.9716,-86.4378,,0.03979810277133655,128.0
"St. George, UT",2020-07-01,1369.7511641454566,37.0758,-113.5752,,0.017736035564482888,110.0
"Muskegon, MI",2020-07-01,,43.2281,-86.2562,,,205.0
"Abilene, TX",2020-07-01,951.6091644893536,32.4543,-99.7384,,0.04145060680573809,89.0
"Iowa City, IA",2020-07-01,1382.8998146146916,41.6559,-91.5303,,0.01170285350427469,22.0
"Auburn, AL",2020-07-01,1096.2499551468843,32.6087,-85.4903,,0.00012485552752394824,60.0
"Midland, TX",2020-07-01,1400.6965171938343,32.0243,-102.1147,,-0.16051419615043339,28.0
"Bloomington, IL",2020-07-01,911.082610795468,40.4757,-88.9703,,0.04480968528922835,103.0
"Hattiesburg, MS",2020-07-01,,31.3074,-89.317,,,161.0
"Oshkosh, WI",2020-07-01,776.2766627165811,44.0227,-88.5619,,0.053219480372374006,106.0
"Eau Claire, WI",2020-07-01,,44.8197,-91.4948,,,79.0
"Greenville, NC",2020-07-01,1070.4812443090725,35.5943,-77.376,,0.05944897543200156,135.0
"Burlington, NC",2020-07-01,915.783207259146,36.076,-79.4685,,0.07030905830623624,291.0
"Waterloo, IA",2020-07-01,893.1068567440856,42.4918,-92.3522,,0.013313260446242703,27.0
"Coeur d'Alene, ID",2020-07-01,1272.4254332226355,47.704,-116.7936,,0.05597441750536003,78.0
"East Stroudsburg, PA",2020-07-01,1211.5693825691242,41.0023,-75.1779,,0.060769866043315135,219.0
"Pueblo, CO",2020-07-01,1010.374155222507,38.2701,-104.6114,,0.06397398863584325,356.0
"Blacksburg, VA",2020-07-01,1322.6694644347178,37.23,-80.4279,,0.039381608070409024,85.0
"Wausau, WI",2020-07-01,,44.962,-89.6459,,,
"Kahului, HI",2020-07-01,,20.8715,-156.4603,,,62.0
"Janesville, WI",2020-07-01,,42.6854,-89.0135,,,183.0
"Tupelo, MS",2020-07-01,,34.2692,-88.7318,,,184.0
"Bloomington, IN",2020-07-01,1323.2649741151856,39.1637,-86.5257,,0.0273687275047525,51.0
"Odessa, TX",2020-07-01,1236.729417976559,31.8801,-102.3448,,-0.1891789794747617,26.0
"Jackson, MI",2020-07-01,759.4230870802378,42.2431,-84.4038,,0.07179393182499427,114.0
"State College, PA",2020-07-01,1532.693126389736,40.7909,-77.8567,,0.03885093905403014,39.0
"Sebastian, FL",2020-07-01,1541.7105924197826,27.7822,-80.4819,,0.060901777289982695,31.0
"Madera, CA",2020-07-01,,36.963,-120.0778,,,379.0
"Decatur, AL",2020-07-01,,34.5731,-86.9905,,,207.0
"Chambersburg, PA",2020-07-01,892.5235189846244,39.9315,-77.6556,,0.035150624434889366,529.0
"Vineland, NJ",2020-07-01,,39.4653,-74.9981,,,407.0
"Idaho Falls, ID",2020-07-01,870.3286829127326,43.4871,-112.0362,,0.06590510905681857,122.0
"Grand Junction, CO",2020-07-01,1112.2765863746445,39.0877,-108.5673,,0.04025574762325945,191.0
"Elizabethtown, KY",2020-07-01,,37.7031,-85.8773,,,239.0
"Niles, MI",2020-07-01,1136.3968294076317,41.8346,-86.2473,,0.02113852825425555,61.0
"Monroe, MI",2020-07-01,,41.9155,-83.3849,,,66.0
"Santa Fe, NM",2020-07-01,1429.9729236029068,35.6619,-105.9819,,0.011996583975020014,68.0
"Concord, NH",2020-07-01,,43.2305,-71.5595,,,232.0
"Alexandria, LA",2020-07-01,,31.2923,-92.4702,,,100.0
"Traverse City, MI",2020-07-01,,44.7546,-85.6038,,,151.0
"Bangor, ME",2020-07-01,1088.749265030259,44.8323,-68.7906,,0.045870940491522294,178.0
"Homosassa Springs, FL",2020-07-01,1169.858967585244,28.8119,-82.5392,,0.027910603299141634,117.0
"Hanford, CA",2020-07-01,,36.3274,-119.6549,,,296.0
"Jefferson City, MO",2020-07-01,,38.5676,-92.1759,,,186.0
"Florence, AL",2020-07-01,,34.8303,-87.6655,,,116.0
"Dothan, AL",2020-07-01,,31.2336,-85.407,,,37.0
"London, KY",2020-07-01,,37.1175,-84.0767,,,
"Albany, GA",2020-07-01,685.0032040959928,31.5776,-84.1762,,0.07622431490314696,253.0
"Ottawa, IL",2020-07-01,,41.3555,-88.8261,,,
"Sioux City, IA",2020-07-01,,42.4959,-96.3901,,,47.0
"Wichita Falls, TX",2020-07-01,865.0378591323504,33.9072,-98.5291,,0.06220165399291844,86.0
"Texarkana, TX",2020-07-01,,33.45,-94.0847,,,73.0
"Valdosta, GA",2020-07-01,952.5406330107784,30.8502,-83.2788,,,216.0
"Logan, UT",2020-07-01,,41.7399,-111.8422,,,157.0
"Flagstaff, AZ",2020-07-01,1717.4430306202237,35.1872,-111.6194,,0.04151111335846247,116.0
"Rocky Mount, NC",2020-07-01,,35.9685,-77.804,,,288.0
"Pottsville, PA",2020-07-01,,40.6798,-76.2091,,,340.0
"Lebanon, PA",2020-07-01,,40.3412,-76.4228,,,347.0
"Morristown, TN",2020-07-01,,36.2043,-83.3001,,,
"Winchester, VA",2020-07-01,1307.4718466397642,39.1735,-78.1746,,0.03714945348583831,213.0
"Wheeling, WV",2020-07-01,821.3452524974969,40.0752,-80.6951,,-0.016088880964600816,11.0
"Morgantown, WV",2020-07-01,1222.5251540155537,39.6383,-79.9464,,0.02523699304810556,55.0
"La Crosse, WI",2020-07-01,,43.8241,-91.2268,,,44.0
"Napa, CA",2020-07-01,2438.914231206001,38.2975,-122.301,,0.015297373285796612,101.0
"Rapid City, SD",2020-07-01,978.5748745164066,44.0716,-103.2204,,0.023249443022578697,54.0
"Sumter, SC",2020-07-01,914.9038493443868,33.9392,-80.393,,0.05779953369041824,159.0
"Eureka, CA",2020-07-01,,40.7943,-124.1564,,,101.0
"Springfield, OH",2020-07-01,,39.93,-83.7959,,,391.0
"Harrisonburg, VA",2020-07-01,1255.9257960440134,38.4362,-78.8735,,0.050208968955534505,170.0
"Battle Creek, MI",2020-07-01,,42.2985,-85.2296,,,146.0
"Sherman, TX",2020-07-01,1145.9727155240291,33.6273,-96.6221,,0.027202104922611436,86.0
"Manhattan, KS",2020-07-01,1002.04952838627,39.1886,-96.6048,,0.012662537445151223,20.0
"Carbondale, IL",2020-07-01,667.1676447875147,37.7221,-89.2237,,0.0639163439238919,44.0
"Johnstown, PA",2020-07-01,606.4655262665397,40.326,-78.9194,,0.05313907380233984,185.0
"Jonesboro, AR",2020-07-01,964.052588704864,35.8212,-90.6791,,0.027680342809593306,120.0
"Bismarck, ND",2020-07-01,1084.2824105205398,46.8143,-100.7694,,0.012399043441634339,26.0
"Hammond, LA",2020-07-01,,30.5061,-90.4563,,,161.0
"Pittsfield, MA",2020-07-01,,42.4517,-73.2605,,,250.0
"Mount Vernon, WA",2020-07-01,1652.8307607778172,48.4203,-122.3115,,0.05726292233484309,64.0
"Jamestown, NY",2020-07-01,,42.0976,-79.2367,,,
"The Villages, FL",2020-07-01,,28.9034,-81.9887,,,21.0
"Albany, OR",2020-07-01,,44.6272,-123.0965,,,104.0
"Glens Falls, NY",2020-07-01,,43.3109,-73.6458,,,138.0
"Lawton, OK",2020-07-01,716.1695923962692,34.6175,-98.4202,,0.018980937553889188,45.0
"Cleveland, TN",2020-07-01,,35.1817,-84.8707,,,320.0
"Sierra Vista, AZ",2020-07-01,,31.563,-110.3153,,,159.0
"Ames, IA",2020-07-01,881.2030484099641,42.0256,-93.6217,,-0.009342419553710957,22.0
"Mansfield, OH",2020-07-01,,40.7656,-82.5275,,,
"Staunton, VA",2020-07-01,1036.7213335842002,38.1593,-79.0611,,0.013098868161308896,258.0
"Augusta, ME",2020-07-01,892.3703981788597,44.3341,-69.7319,,0.046773167931027926,197.0
"Altoona, PA",2020-07-01,,40.5082,-78.4007,,,170.0
"New Bern, NC",2020-07-01,,35.0955,-77.0723,,,143.0
"Farmington, NM",2020-07-01,,36.7555,-108.1823,,,
"St. Joseph, MO",2020-07-01,,39.7598,-94.821,,,103.0
"San Angelo, TX",2020-07-01,1028.1397964619496,31.4424,-100.4504,,0.022834137714267122,92.0
"Wenatchee, WA",2020-07-01,,47.436,-120.3295,,,36.0
"Owensboro, KY",2020-07-01,,37.7575,-87.1172,,,
"Holland, MI",2020-07-01,,42.7677,-86.0984,,,166.0
"Lumberton, NC",2020-07-01,,34.6312,-79.0186,,,80.0
"Lawrence, KS",2020-07-01,1163.6409241679748,38.9597,-95.2642,,0.05489577579310234,70.0
"Goldsboro, NC",2020-07-01,,35.3778,-77.9717,,,170.0
"Watertown, NY",2020-07-01,,43.9734,-75.9094,,,45.0
"Sheboygan, WI",2020-07-01,,43.7403,-87.7316,,,63.0
"Weirton, WV",2020-07-01,,40.406,-80.5671,,,123.0
"Missoula, MT",2020-07-01,979.0091402512132,46.8751,-114.0214,,0.033571760289930586,109.0
"Wooster, OH",2020-07-01,,40.8172,-81.9336,,,131.0
"Bozeman, MT",2020-07-01,,45.6833,-111.0558,,,84.0
"Anniston, AL",2020-07-01,,33.6712,-85.8135,,,
"Beckley, WV",2020-07-01,,37.7877,-81.1841,,,33.0
"Williamsport, PA",2020-07-01,,41.2399,-77.037,,,
"Brunswick, GA",2020-07-01,,31.1449,-81.4746,,,59.0
"California, MD",2020-07-01,1305.3538788206918,38.2969,-76.4949,,0.04995954561211491,152.0
"Twin Falls, ID",2020-07-01,,42.5645,-114.4613,,,113.0
"Cookeville, TN",2020-07-01,,36.1482,-85.5109,,,151.0
"Muncie, IN",2020-07-01,698.2141907210337,40.1989,-85.395,,0.0221788305405608,94.0
"Michigan City, IN",2020-07-01,,41.7092,-86.869,,,280.0
"Roseburg, OR",2020-07-01,,43.2231,-123.352,,,
"Lewiston, ME",2020-07-01,,44.0915,-70.1681,,,244.0
"Longview, WA",2020-07-01,,46.1461,-122.963,,,61.0
"Ogdensburg, NY",2020-07-01,,44.7088,-75.4717,,,
"Kankakee, IL",2020-07-01,,41.102,-87.8643,,,330.0
"Bluefield, WV",2020-07-01,,37.2608,-81.2143,,,
"Show Low, AZ",2020-07-01,,34.2671,-110.0384,,,
"Richmond, KY",2020-07-01,819.5419065266568,37.7307,-84.2925,,0.028955874118891778,264.0
"Tullahoma, TN",2020-07-01,,35.3721,-86.2172,,,151.0
"Whitewater, WI",2020-07-01,,42.8372,-88.7341,,,100.0
"Ithaca, NY",2020-07-01,1643.4359677520786,42.4442,-76.5032,,0.05105996822961911,37.0
"Grand Forks, ND",2020-07-01,770.4751611939561,47.9214,-97.0884,,0.02063453379982194,21.0
"Decatur, IL",2020-07-01,,39.8557,-88.9342,,,141.0
"LaGrange, GA",2020-07-01,,33.0274,-85.0384,,,
"Bay City, MI",2020-07-01,,43.5902,-83.8887,,,151.0
"Fond du Lac, WI",2020-07-01,,43.7718,-88.4397,,,68.0
"Gettysburg, PA",2020-07-01,,39.8304,-77.2339,,,200.0
"Gadsden, AL",2020-07-01,,34.0086,-86.0157,,,
"Kalispell, MT",2020-07-01,,48.2153,-114.3274,,,628.0
"Danville, VA",2020-07-01,,36.5831,-79.4088,,,
"Mankato, MN",2020-07-01,,44.1715,-93.9772,,,103.0
"Lima, OH",2020-07-01,,40.741,-84.112,,,60.0
"Truckee, CA",2020-07-01,,39.3455,-120.1848,,,111.0
"Sebring, FL",2020-07-01,943.6775254099864,27.477,-81.453,,0.044149374393519514,134.0
"Cheyenne, WY",2020-07-01,1052.393547353858,41.135,-104.7902,,0.03578814993498325,262.0
"Hot Springs, AR",2020-07-01,,34.4892,-93.0501,,,131.0
"Adrian, MI",2020-07-01,,41.8994,-84.0447,,,
"Shelby, NC",2020-07-01,,35.2904,-81.5451,,,
"Dubuque, IA",2020-07-01,,42.5002,-90.707,,,78.0
"Meridian, MS",2020-07-01,,32.3846,-88.6896,,,
"Pinehurst, NC",2020-07-01,1367.6658079822123,35.1922,-79.4684,,0.048743838658679595,63.0
"Victoria, TX",2020-07-01,,28.8287,-96.9849,,,65.0
"Rome, GA",2020-07-01,,34.2662,-85.1863,,,246.0
"Sevierville, TN",2020-07-01,,35.8872,-83.5678,,,
"Moses Lake, WA",2020-07-01,1124.7175141367647,47.1279,-119.2759,,0.08967932712557469,29.0
"Cape Girardeau, MO",2020-07-01,,37.3109,-89.5597,,,83.0
"Fairbanks, AK",2020-07-01,,64.8353,-147.6533,,,34.0
"Brainerd, MN",2020-07-01,,46.3553,-94.1983,,,
"Cumberland, MD",2020-07-01,,39.6515,-78.7584,,,105.0
"Ocean City, NJ",2020-07-01,,39.2681,-74.602,,,155.0
"Corvallis, OR",2020-07-01,1310.9708706077904,44.5698,-123.2779,,0.010674239337914893,69.0
"Pocatello, ID",2020-07-01,,42.8724,-112.4647,,,93.0
"Corning, NY",2020-07-01,,42.147,-77.0561,,,64.0
"New Philadelphia, OH",2020-07-01,,40.486,-81.4401,,,
"Sunbury, PA",2020-07-01,,40.8616,-76.7871,,,
"Ukiah, CA",2020-07-01,,39.1464,-123.2105,,,
"Hermiston, OR",2020-07-01,,45.8326,-119.2854,,,75.0
"Clarksburg, WV",2020-07-01,,39.2862,-80.3232,,,86.0
"Beaver Dam, WI",2020-07-01,,43.4688,-88.8309,,,37.0
"Pine Bluff, AR",2020-07-01,,34.2116,-92.0173,,,118.0
"Grants Pass, OR",2020-07-01,,42.4333,-123.3317,,,238.0
"Cullman, AL",2020-07-01,,34.1775,-86.8407,,,
"Lufkin, TX",2020-07-01,,31.3217,-94.7277,,,87.0
"Zanesville, OH",2020-07-01,,39.9565,-82.0132,,,270.0
"New Castle, PA",2020-07-01,,40.9956,-80.3458,,,39.0
"Oak Harbor, WA",2020-07-01,1518.743146804986,48.2964,-122.6333,,0.02830099081456816,198.0
"Orangeburg, SC",2020-07-01,,33.4928,-80.8671,,,
"Watertown, WI",2020-07-01,,43.1893,-88.7285,,,81.0
"Meadville, PA",2020-07-01,,41.6476,-80.1468,,,
"Elmira, NY",2020-07-01,,42.0938,-76.8097,,,382.0
"Great Falls, MT",2020-07-01,852.6747539960934,47.5022,-111.2996,,0.037581209571605934,129.0
"Russellville, AR",2020-07-01,,35.2762,-93.1383,,,51.0
"Indiana, PA",2020-07-01,,40.622,-79.1552,,,13.0
"Midland, MI",2020-07-01,,43.6241,-84.2319,,,60.0
"Kokomo, IN",2020-07-01,667.6006564755675,40.464,-86.1277,,0.017104556883101862,194.0
"Bloomsburg, PA",2020-07-01,,41.0027,-76.4561,,,161.0
"Opelousas, LA",2020-07-01,,30.5252,-92.0816,,,85.0
"Helena, MT",2020-07-01,,46.5965,-112.0202,,,619.0
"Key West, FL",2020-07-01,2459.431430926624,24.5642,-81.7775,,0.041501475992231196,26.0
"Talladega, AL",2020-07-01,,33.4333,-86.0986,,,25.0
"Stillwater, OK",2020-07-01,,36.1317,-97.0742,,,27.0
"Columbus, IN",2020-07-01,996.5687944929356,39.2093,-85.9183,,0.00942672646875553,140.0
"Athens, TX",2020-07-01,,32.2041,-95.8321,,,62.0
"Centralia, WA",2020-07-01,,46.7223,-122.9696,,,
"Manitowoc, WI",2020-07-01,,44.0991,-87.6812,,,
"Hinesville, GA",2020-07-01,1049.2380286779298,31.8248,-81.6137,,0.029019994200622623,151.0
"DuBois, PA",2020-07-01,,41.1223,-78.7565,,,
"Warsaw, IN",2020-07-01,,41.2448,-85.8465,,,64.0
"Statesboro, GA",2020-07-01,,32.4375,-81.7751,,,109.0
"Casper, WY",2020-07-01,965.1658971429126,42.842,-106.3208,,0.011036368651362372,69.0
"Wilson, NC",2020-07-01,,35.7311,-77.9284,,,302.0
"Glenwood Springs, CO",2020-07-01,3147.4517700945485,39.5455,-107.3347,,-0.0077528331633417435,19.0
"Seneca, SC",2020-07-01,,34.6818,-82.96,,,103.0
"Minot, ND",2020-07-01,,48.2375,-101.278,,,14.0
"Searcy, AR",2020-07-01,,35.2418,-91.7351,,,106.0
"Grand Island, NE",2020-07-01,,40.9218,-98.3586,,,64.0
"Port Angeles, WA",2020-07-01,,48.1141,-123.4565,,,
"Auburn, NY",2020-07-01,,42.9338,-76.5685,,,144.0
"Huntsville, TX",2020-07-01,,30.7009,-95.5567,,,44.0
"Keene, NH",2020-07-01,,42.9494,-72.2998,,,168.0
"Heber, UT",2020-07-01,2069.923136853103,40.507,-111.3986,,-0.010871638142604723,37.0
"Quincy, IL",2020-07-01,,39.9336,-91.3799,,,55.0
"Sandusky, OH",2020-07-01,,41.4468,-82.7024,,,
"Findlay, OH",2020-07-01,,41.0469,-83.6379,,,53.0
"Frankfort, KY",2020-07-01,711.1867147316422,38.1924,-84.8643,,0.04858643339094049,204.0
"Danville, IL",2020-07-01,,40.1426,-87.6111,,,
"Aberdeen, WA",2020-07-01,,46.9757,-123.8094,,,
"Jefferson, GA",2020-07-01,,34.1373,-83.6021,,,179.0
"Palatka, FL",2020-07-01,,29.6493,-81.6705,,,
"Shawnee, OK",2020-07-01,,35.3531,-96.9647,,,
"Stevens Point, WI",2020-07-01,,44.5241,-89.5507,,,39.0
"Greeneville, TN",2020-07-01,,36.168,-82.8197,,,
"Greenwood, SC",2020-07-01,,34.1947,-82.1542,,,
"Lake City, FL",2020-07-01,,30.1901,-82.6471,,,155.0
"Klamath Falls, OR",2020-07-01,,42.2195,-121.7754,,,
"Morehead City, NC",2020-07-01,,34.7308,-76.7388,,,111.0
"Clearlake, CA",2020-07-01,,38.9589,-122.633,,,217.0
"Alamogordo, NM",2020-07-01,,32.8837,-105.9625,,,31.0
"Farmington, MO",2020-07-01,,37.7822,-90.4282,,,
"Muskogee, OK",2020-07-01,,35.7432,-95.3567,,,185.0
"Marion, IN",2020-07-01,,40.5497,-85.6604,,,
"Marion, IN",2020-07-01,,39.5884,-85.7587,,,
"Faribault, MN",2020-07-01,,44.2996,-93.2789,,,
"Richmond, IN",2020-07-01,,39.8318,-84.8905,,,90.0
"Marquette, MI",2020-07-01,,46.544,-87.4082,,,
"Mount Pleasant, MI",2020-07-01,,43.5966,-84.7759,,,
"Baraboo, WI",2020-07-01,,43.4695,-89.7376,,,
"Jasper, AL",2020-07-01,,33.8508,-87.271,,,
"Roswell, NM",2020-07-01,,33.373,-104.5294,,,90.0
"Shelton, WA",2020-07-01,,47.2186,-123.1121,,,
"Dublin, GA",2020-07-01,,32.536,-82.928,,,
"Nacogdoches, TX",2020-07-01,,31.6134,-94.6528,,,39.0
"Coos Bay, OR",2020-07-01,,43.3789,-124.233,,,
"Forest City, NC",2020-07-01,,35.3339,-81.8702,,,
"Rexburg, ID",2020-07-01,,43.8226,-111.7919,,,58.0
"Lewiston, ID",2020-07-01,,46.3934,-116.9933,,,
"Laconia, NH",2020-07-01,,43.5725,-71.4775,,,305.0
"Georgetown, SC",2020-07-01,,33.3594,-79.2958,,,
"Athens, OH",2020-07-01,,39.327,-82.0987,,,25.0
"Sanford, NC",2020-07-01,,35.4875,-79.177,,,
"Enid, OK",2020-07-01,,36.4063,-97.87,,,
"Walla Walla, WA",2020-07-01,,46.0671,-118.3368,,,
"Hutchinson, KS",2020-07-01,614.4296999349327,38.0671,-97.9081,,0.04170854489477316,80.0
"Hudson, NY",2020-07-01,,42.2515,-73.7859,,,
"Starkville, MS",2020-07-01,,33.4608,-88.8297,,,73.0
"Carlsbad, NM",2020-07-01,,32.401,-104.2388,,,
"Gillette, WY",2020-07-01,,44.2752,-105.4982,,,30.0
"Crossville, TN",2020-07-01,,35.9526,-85.0295,,,
"Granbury, TX",2020-07-01,1239.464599750072,32.4475,-97.7702,,0.04356668567048061,
"Sayre, PA",2020-07-01,,41.9856,-76.5207,,,175.0
"Salina, KS",2020-07-01,,38.8136,-97.6143,,,
"Marietta, OH",2020-07-01,,39.4241,-81.4465,,,
"Fergus Falls, MN",2020-07-01,,46.2854,-96.0758,,,
"Barre, VT",2020-07-01,,44.1998,-72.5085,,,
"Oneonta, NY",2020-07-01,,42.4551,-75.0666,,,60.0
"Columbus, MS",2020-07-01,,33.5088,-88.4096,,,
"Ardmore, OK",2020-07-01,,34.1949,-97.1256,,,
"Charleston, IL",2020-07-01,,39.4842,-88.1781,,,
"Fernley, NV",2020-07-01,,39.5627,-119.1906,,,166.0
"Carson City, NV",2020-07-01,,39.1511,-119.7476,,,292.0
"Eagle Pass, TX",2020-07-01,,28.7125,-100.484,,,
"Calhoun, GA",2020-07-01,,34.491,-84.9386,,,
"Fairmont, WV",2020-07-01,,39.4768,-80.1491,,,
"Branson, MO",2020-07-01,,36.6509,-93.2636,,,103.0
"Cedar City, UT",2020-07-01,,37.6834,-113.0956,,,194.0
"Waycross, GA",2020-07-01,,31.2108,-82.3579,,,
"Oxford, MS",2020-07-01,,34.3627,-89.5336,,,19.0
"Edwards, CO",2020-07-01,,39.6215,-106.6184,,,47.0
"Durango, CO",2020-07-01,,37.2659,-107.8781,,,120.0
"Danville, KY",2020-07-01,,37.6418,-84.7777,,,
"St. Marys, GA",2020-07-01,,30.7567,-81.5722,,,188.0
"Boone, NC",2020-07-01,,36.2111,-81.6669,,,
"Warrensburg, MO",2020-07-01,722.7857795451115,38.7627,-93.726,,0.02557838346427732,92.0
"Fort Leonard Wood, MO",2020-07-01,,37.7562,-92.1274,,,
"Elizabeth City, NC",2020-07-01,,36.2942,-76.236,,,
"Payson, AZ",2020-07-01,,34.2433,-111.3195,,,
"Athens, TN",2020-07-01,,35.4573,-84.6045,,,
"Enterprise, AL",2020-07-01,941.1057827801228,31.3275,-85.8463,,0.053887699646037124,60.0
"Ashland, OH",2020-07-01,,40.8668,-82.3156,,,82.0
"Scottsboro, AL",2020-07-01,,34.6438,-86.0491,,,
"Milledgeville, GA",2020-07-01,,33.0874,-83.2414,,,
"Kerrville, TX",2020-07-01,,30.0398,-99.132,,,111.0
"Bartlesville, OK",2020-07-01,,36.7365,-95.9456,,,7.0
"Corsicana, TX",2020-07-01,,32.0824,-96.4665,,,
"Galesburg, IL",2020-07-01,,40.9506,-90.3763,,,
"Pahrump, NV",2020-07-01,,36.2235,-115.9974,,,
"Paris, TX",2020-07-01,,33.6688,-95.546,,,
"Winona, MN",2020-07-01,,44.0505,-91.6684,,,77.0
"Newport, OR",2020-07-01,,44.6242,-124.0513,,,
"Shelbyville, TN",2020-07-01,,35.4987,-86.4517,,,
"Amsterdam, NY",2020-07-01,,42.942,-74.1906,,,
"Ozark, AL",2020-07-01,,31.4508,-85.6473,,,46.0
"Gardnerville Ranchos, NV",2020-07-01,,38.8957,-119.7492,,,79.0
"Fort Polk South, LA",2020-07-01,,31.0512,-93.2159,,,
"Ca-Â¦on City, CO",2020-07-01,,,,,,
"New Castle, IN",2020-07-01,,39.9191,-85.3697,,,103.0
"Clovis, NM",2020-07-01,,34.4376,-103.1923,,,
"Norfolk, NE",2020-07-01,,42.0324,-97.4217,,,73.0
"Ruston, LA",2020-07-01,,32.5328,-92.6363,,,43.0
"Pullman, WA",2020-07-01,,46.7336,-117.168,,,63.0
"Blackfoot, ID",2020-07-01,,43.194,-112.3454,,,
"Kendallville, IN",2020-07-01,,41.4441,-85.2578,,,
"Montrose, CO",2020-07-01,,38.4689,-107.859,,,78.0
"Cortland, NY",2020-07-01,,42.6004,-76.1784,,,148.0
"Mount Sterling, KY",2020-07-01,,38.0648,-83.9472,,,
"Sandpoint, ID",2020-07-01,,48.2822,-116.5614,,,
"Bardstown, KY",2020-07-01,,37.8175,-85.455,,,
"Bemidji, MN",2020-07-01,,47.4828,-94.8797,,,
"Durant, OK",2020-07-01,,33.9949,-96.3923,,,
"Cornelia, GA",2020-07-01,,34.517,-83.5311,,,
"Thomasville, GA",2020-07-01,,30.8394,-83.9782,,,
"Paragould, AR",2020-07-01,,36.0555,-90.5149,,,
"Burlington, IA",2020-07-01,,40.8071,-91.1247,,,
"Menomonie, WI",2020-07-01,,44.8893,-91.9084,,,122.0
"Freeport, IL",2020-07-01,,42.2891,-89.6346,,,
"Rolla, MO",2020-07-01,,37.9459,-91.7607,,,49.0
"Marion, NC",2020-07-01,,35.6777,-82.0017,,,
"Ellensburg, WA",2020-07-01,,46.9999,-120.5475,,,88.0
"Ponca City, OK",2020-07-01,,36.7235,-97.0677,,,
"Lewisburg, PA",2020-07-01,,40.9641,-76.8901,,,
"Auburn, IN",2020-07-01,,41.3666,-85.0559,,,
"Duncan, OK",2020-07-01,,34.5408,-97.9215,,,
"Sedalia, MO",2020-07-01,,38.7059,-93.234,,,135.0
"Henderson, NC",2020-07-01,,36.3256,-78.4151,,,
"Aberdeen, SD",2020-07-01,,45.4649,-98.4686,,,
"Rock Springs, WY",2020-07-01,894.3821174072443,41.5947,-109.2209,,,63.0
"Stephenville, TX",2020-07-01,,32.2147,-98.2205,,,57.0
"Mountain Home, AR",2020-07-01,,36.3351,-92.384,,,
"Gainesville, TX",2020-07-01,,33.639,-97.1487,,,
"Astoria, OR",2020-07-01,,46.1856,-123.8053,,,181.0
"Bradford, PA",2020-07-01,,41.9605,-78.6412,,,
"Marshalltown, IA",2020-07-01,,42.0343,-92.9068,,,
"Big Rapids, MI",2020-07-01,,43.6992,-85.4806,,,
"Austin, MN",2020-07-01,,43.6721,-92.9784,,,
"Selinsgrove, PA",2020-07-01,,40.8003,-76.8646,,,
"Okeechobee, FL",2020-07-01,,27.2413,-80.8298,,,
"Moscow, ID",2020-07-01,,46.7308,-116.9986,,,
"Riverton, WY",2020-07-01,,43.0421,-108.4144,,,
"Pittsburg, KS",2020-07-01,,37.4129,-94.6985,,,
"Alexandria, MN",2020-07-01,,45.8776,-95.3767,,,
"Williston, ND",2020-07-01,,48.1814,-103.6364,,,17.0
"Ada, OK",2020-07-01,,34.7662,-96.6681,,,
"Crawfordsville, IN",2020-07-01,,40.0428,-86.8976,,,
"Lock Haven, PA",2020-07-01,,41.1365,-77.4521,,,
"Easton, MD",2020-07-01,,38.776,-76.0701,,,
"Laramie, WY",2020-07-01,,41.3099,-105.6085,,,299.0
"Fremont, NE",2020-07-01,,41.4395,-96.4873,,,86.0
"Fort Dodge, IA",2020-07-01,,42.5098,-94.1751,,,
"Dyersburg, TN",2020-07-01,,36.0465,-89.3777,,,
"DeRidder, LA",2020-07-01,,30.8468,-93.2931,,,
"Bay City, TX",2020-07-01,,28.9838,-95.9601,,,
"North Platte, NE",2020-07-01,,41.1263,-100.7641,,,
"Butte, MT",2020-07-01,,45.902,-112.6571,,,
"Emporia, KS",2020-07-01,,38.4028,-96.1932,,,132.0
"Jackson, WY",2020-07-01,,43.472,-110.7746,,,181.0
"Brookings, SD",2020-07-01,,44.3022,-96.7859,,,78.0
"Dickinson, ND",2020-07-01,,46.8918,-102.7925,,,
"Pella, IA",2020-07-01,,41.4052,-92.9189,,,
"Frankfort, IN",2020-07-01,,40.281,-86.5212,,,
"Brevard, NC",2020-07-01,,35.2438,-82.7265,,,
"Kingsville, TX",2020-07-01,,27.5094,-97.861,,,
"Breckenridge, CO",2020-07-01,,39.4995,-106.0432,,,82.0
"McPherson, KS",2020-07-01,,38.3714,-97.6605,,,
"Kirksville, MO",2020-07-01,,40.1986,-92.5752,,,61.0
"Mountain Home, ID",2020-07-01,,43.1324,-115.697,,,
"Fredericksburg, TX",2020-07-01,,30.266,-98.8751,,,
"Great Bend, KS",2020-07-01,,38.3593,-98.8015,,,
"Altus, OK",2020-07-01,,34.6565,-99.3061,,,
"Hailey, ID",2020-07-01,,43.5141,-114.3001,,,
"Steamboat Springs, CO",2020-07-01,,40.4777,-106.8243,,,
"Prineville, OR",2020-07-01,,44.2985,-120.8607,,,
"Rockport, TX",2020-07-01,,28.029,-97.0722,,,
"Hood River, OR",2020-07-01,,45.7092,-121.526,,,
"Mitchell, SD",2020-07-01,,43.7294,-98.0337,,,
"Wahpeton, ND",2020-07-01,,46.2722,-96.6118,,,
"Jamestown, ND",2020-07-01,,46.9063,-98.6937,,,
"Portales, NM",2020-07-01,,34.1754,-103.3565,,,
"Brownsville, TN",2020-07-01,,35.589,-89.2578,,,
"New York, NY",2020-08-01,2507.615173910562,40.6943,-73.9249,19498249.0,-0.026236631135232336,53.0
"Los Angeles, CA",2020-08-01,2316.867018208356,34.1141,-118.4068,12799100.0,0.0003815273840772626,116.0
"Chicago, IL",2020-08-01,1567.5868033657075,41.8375,-87.6866,9262825.0,0.0045635530405883085,72.0
"Dallas, TX",2020-08-01,1366.110939935744,32.7935,-96.7667,8100037.0,0.01199575092581373,91.0
"Houston, TX",2020-08-01,1370.8655909067668,29.786,-95.3885,7510253.0,0.00148147440116575,38.0
"Washington, DC",2020-08-01,1936.0696653172995,38.9047,-77.0163,6304975.0,0.002462621238509932,83.0
"Philadelphia, PA",2020-08-01,1469.037641351391,40.0077,-75.1339,6246160.0,0.023596899382341885,206.0
"Miami, FL",2020-08-01,1762.3434981853738,25.784,-80.2101,6183199.0,0.01823567123827252,26.0
"Atlanta, GA",2020-08-01,1423.9628566717695,33.7628,-84.422,6307261.0,0.03944539295018812,227.0
"Boston, MA",2020-08-01,2352.686908523216,42.3188,-71.0852,4919179.0,-0.005519893327497694,42.0
"Phoenix, AZ",2020-08-01,1346.78652983434,33.5722,-112.0892,5070110.0,0.057043987545542185,181.0
"San Francisco, CA",2020-08-01,2782.17907154083,37.7558,-122.4449,4566961.0,-0.0172056025133569,75.0
"Riverside, CA",2020-08-01,1796.816147129381,33.9381,-117.3949,4688053.0,0.04261760816148241,436.0
"Detroit, MI",2020-08-01,1104.53009270682,42.3834,-83.1024,4342304.0,0.03747541907226348,301.0
"Seattle, WA",2020-08-01,1822.5689497628475,47.6211,-122.3244,4044837.0,0.01364192074827697,91.0
"Minneapolis, MN",2020-08-01,1443.835724929144,44.9635,-93.2678,3712020.0,0.018441726804961034,101.0
"San Diego, CA",2020-08-01,2157.969477390276,32.8313,-117.1222,3269973.0,0.01166675782536064,150.0
"Tampa, FL",2020-08-01,1382.6892975105618,27.9945,-82.4447,3342963.0,0.036519756052570296,116.0
"Denver, CO",2020-08-01,1588.875702189022,39.762,-104.8758,3005131.0,0.0006495424485295498,111.0
"Baltimore, MD",2020-08-01,1472.5043261655153,39.3051,-76.6144,2834316.0,0.011646497642643583,130.0
"St. Louis, MO",2020-08-01,1027.4477174369802,38.6359,-90.2451,2796999.0,0.03574520011024784,173.0
"Orlando, FL",2020-08-01,1464.0515998958829,28.4773,-81.337,2817933.0,0.012671232272595923,98.0
"Charlotte, NC",2020-08-01,1329.9658162176656,35.2083,-80.8303,2805115.0,0.02269878539300163,143.0
"San Antonio, TX",2020-08-01,1214.4796309788296,29.4632,-98.5238,2703999.0,0.015217131352136093,91.0
"Portland, OR",2020-08-01,1499.226718333941,45.5371,-122.65,2508050.0,0.01375299645219008,119.0
"Sacramento, CA",2020-08-01,1779.491464192586,38.5677,-121.4685,2420608.0,0.032169500673541185,346.0
"Pittsburgh, PA",2020-08-01,1154.5250617541822,40.4397,-79.9763,2422725.0,0.03530156450262201,95.0
"Cincinnati, OH",2020-08-01,1130.657333064287,39.1413,-84.506,2271479.0,0.0503841503447493,157.0
"Austin, TX",2020-08-01,1427.103888986508,30.3005,-97.7522,2473275.0,0.004199195106128872,44.0
"Las Vegas, NV",2020-08-01,1323.0986246748794,36.2333,-115.2654,2336573.0,0.021740212838551987,220.0
"Kansas City, MO",2020-08-01,1085.3482706959928,39.1238,-94.5541,2221343.0,0.042577612705195556,143.0
"Columbus, OH",2020-08-01,1131.2854345272076,39.9862,-82.9855,2180271.0,0.043144325532436856,146.0
"Indianapolis, IN",2020-08-01,1136.5387446436737,39.7771,-86.1458,2138468.0,0.059202890939128006,154.0
"Cleveland, OH",2020-08-01,1007.0636954702948,41.4764,-81.6805,2063132.0,0.04736991346066888,241.0
"San Jose, CA",2020-08-01,2910.887357622224,37.3012,-121.848,1945767.0,-0.025218929946366875,76.0
"Nashville, TN",2020-08-01,1458.6376248064196,36.1715,-86.7842,2102573.0,0.019864368401847354,64.0
"Virginia Beach, VA",2020-08-01,1266.5177241907186,36.7335,-76.0435,1787169.0,0.03486028143901643,341.0
"Providence, RI",2020-08-01,1450.7440499513823,41.823,-71.4187,1677803.0,0.04353592235322257,321.0
"Jacksonville, FL",2020-08-01,1255.218710689693,30.3322,-81.6749,1713240.0,0.0326744684377549,124.0
"Milwaukee, WI",2020-08-01,1045.0648509267128,43.0642,-87.9675,1560424.0,0.02591973147335591,177.0
"Oklahoma City, OK",2020-08-01,1061.4594147696494,35.4676,-97.5136,1477926.0,0.02809561829784113,86.0
"Raleigh, NC",2020-08-01,1345.4746705378896,35.8324,-78.6429,1509231.0,0.019128304301728072,128.0
"Memphis, TN",2020-08-01,1097.2359165269947,35.1087,-89.9663,1335674.0,0.07158816961365866,200.0
"Richmond, VA",2020-08-01,1223.3547092590843,37.5295,-77.4756,1349732.0,0.03887089476442407,211.0
"Louisville, KY",2020-08-01,1038.6056665403196,38.1663,-85.6485,1365557.0,0.034735111000541385,143.0
"New Orleans, LA",2020-08-01,1267.6349479769813,30.0687,-89.9288,962165.0,0.02596279357124498,70.0
"Salt Lake City, UT",2020-08-01,1265.517532622509,40.7776,-111.9311,1267864.0,0.020513599117042647,94.0
"Hartford, CT",2020-08-01,1326.911866131766,41.7661,-72.6834,1151543.0,0.020106835357387887,172.0
"Buffalo, NY",2020-08-01,994.8231450677802,42.9018,-78.8487,1155604.0,0.0524193933685273,284.0
"Birmingham, AL",2020-08-01,1049.0708596359943,33.5279,-86.7971,1184290.0,0.03265649097525003,85.0
"Rochester, NY",2020-08-01,1076.872665752737,43.168,-77.6162,1052087.0,0.02784761100893607,215.0
"Grand Rapids, MI",2020-08-01,1250.4155389032578,42.9619,-85.6562,1162950.0,0.03858647585948405,181.0
"Tucson, AZ",2020-08-01,1160.857888524326,32.1541,-110.8787,1063162.0,0.0481779716879871,152.0
"Urban Honolulu, HI",2020-08-01,2136.5088259687404,,,989408.0,0.0012503746039207453,90.0
"Tulsa, OK",2020-08-01,1046.796570438112,36.1283,-95.9042,,0.04482312752876516,109.0
"Fresno, CA",2020-08-01,1439.853216061809,36.783,-119.7939,,0.04737787652022729,547.0
"Worcester, MA",2020-08-01,1421.42921274579,42.2705,-71.8079,,0.05051676075623024,315.0
"Omaha, NE",2020-08-01,1027.9306498187066,41.2627,-96.0529,,0.046787443431779874,118.0
"Bridgeport, CT",2020-08-01,2058.1882604089424,41.1918,-73.1954,,0.04308330297742646,135.0
"Greenville, SC",2020-08-01,1147.9869573112462,34.8354,-82.3646,,0.00971041734926481,111.0
"Albuquerque, NM",2020-08-01,1076.9278741779924,35.1054,-106.6465,,0.042592210727122604,224.0
"Bakersfield, CA",2020-08-01,1246.971856237833,35.3529,-119.0359,,0.06329726444561179,602.0
"Albany, NY",2020-08-01,1210.5977729143465,42.6664,-73.7987,,0.019568416373468622,121.0
"Knoxville, TN",2020-08-01,1146.967949347158,35.9692,-83.9496,,0.04744307397111536,190.0
"Baton Rouge, LA",2020-08-01,1118.4803901093633,30.442,-91.1311,,0.007811188265466562,62.0
"McAllen, TX",2020-08-01,908.1733886202978,26.2252,-98.2467,,0.01846478537767382,38.0
"New Haven, CT",2020-08-01,1362.682735084965,41.3113,-72.9246,,0.044045658774350294,205.0
"El Paso, TX",2020-08-01,1106.229890501487,31.8476,-106.43,,0.05919111282889378,174.0
"Allentown, PA",2020-08-01,1261.6895049074194,40.5961,-75.4756,,0.03697125830014003,483.0
"Oxnard, CA",2020-08-01,2283.070972374563,34.1964,-119.1815,,0.015292923366449163,163.0
"Columbia, SC",2020-08-01,1139.3036204584364,34.0378,-80.9036,,0.04182693359861345,134.0
"North Port, FL",2020-08-01,1524.25973643086,27.0576,-82.1977,,0.027066151562815666,39.0
"Dayton, OH",2020-08-01,955.4336579545152,39.7805,-84.2003,,0.06598064137576265,248.0
"Charleston, SC",2020-08-01,1364.2236292705286,32.8168,-79.9687,,0.01363876737018943,67.0
"Greensboro, NC",2020-08-01,1045.834412739505,36.0956,-79.8271,,0.047437456574317194,316.0
"Stockton, CA",2020-08-01,1811.4136750410169,37.9765,-121.3109,,0.05410985179447869,917.0
"Cape Coral, FL",2020-08-01,1408.4948848441718,26.6443,-81.9957,,0.040889545649714254,39.0
"Boise City, ID",2020-08-01,1321.7105302509283,,,,0.04794752948494585,175.0
"Colorado Springs, CO",2020-08-01,1425.8616085889776,38.8674,-104.7605,,0.04636356928677743,180.0
"Little Rock, AR",2020-08-01,952.2560187872195,34.7256,-92.3577,,0.0357764903966189,157.0
"Lakeland, FL",2020-08-01,1337.5085419059349,28.0557,-81.9545,,0.038436531511678584,217.0
"Akron, OH",2020-08-01,898.9359644966836,41.0798,-81.5219,,0.0551940937573725,281.0
"Des Moines, IA",2020-08-01,1069.570207576319,41.5725,-93.6105,,0.011736417260871157,45.0
"Springfield, MA",2020-08-01,1239.6282364664478,42.1155,-72.5395,,0.046188282034504535,274.0
"Poughkeepsie, NY",2020-08-01,1561.1320312042849,41.695,-73.9211,,0.07431848057332902,222.0
"Ogden, UT",2020-08-01,1222.3444972937675,41.2279,-111.9682,,0.05198939748582343,94.0
"Madison, WI",2020-08-01,1347.6550507171498,43.0822,-89.393,,0.026233594811681415,48.0
"Winston, NC",2020-08-01,1103.2503280971712,,,,0.05308952718769433,215.0
"Deltona, FL",2020-08-01,1337.329850573752,28.905,-81.2137,,0.04393397953530598,104.0
"Syracuse, NY",2020-08-01,1097.1581824491716,43.0407,-76.1437,,0.050862908785340055,154.0
"Provo, UT",2020-08-01,1356.559577915796,40.2457,-111.6457,,0.026918087943180735,78.0
"Toledo, OH",2020-08-01,871.414787780488,41.6638,-83.5827,,0.0417958139140997,216.0
"Wichita, KS",2020-08-01,860.113353513877,37.6895,-97.3443,,0.0446064561598396,154.0
"Durham, NC",2020-08-01,1294.827964318849,35.9792,-78.9022,,0.017092526406838893,85.0
"Augusta, GA",2020-08-01,1025.454346119104,33.3645,-82.0708,,0.06730996374638809,225.0
"Palm Bay, FL",2020-08-01,1396.8652456384452,27.9631,-80.6593,,0.037562872716148554,75.0
"Jackson, MS",2020-08-01,1075.0063895736905,32.3157,-90.2125,,0.03159007643457845,129.0
"Harrisburg, PA",2020-08-01,1049.7971953218916,40.2752,-76.8843,,0.045275680163902265,288.0
"Spokane, WA",2020-08-01,1103.9558561805532,47.6671,-117.433,,0.053667343358924535,118.0
"Scranton, PA",2020-08-01,925.9094229550528,41.4044,-75.6649,,0.07259500289284282,393.0
"Chattanooga, TN",2020-08-01,1091.1328193670615,35.066,-85.2481,,0.042152650819248905,150.0
"Modesto, CA",2020-08-01,1520.197733253098,37.6375,-121.0028,,0.07216955578190065,858.0
"Lancaster, PA",2020-08-01,1014.761610250456,40.042,-76.3012,,0.045757125258819586,390.0
"Portland, ME",2020-08-01,1626.4818245083463,43.6773,-70.2715,,0.06045750282387807,164.0
"Youngstown, OH",2020-08-01,734.6088042762495,41.0993,-80.6463,,0.06413363591077914,128.0
"Lansing, MI",2020-08-01,1015.5804905679396,42.7142,-84.5601,,0.0537286719474801,188.0
"Fayetteville, AR",2020-08-01,1150.119802757274,36.0714,-94.1661,,0.03353809047478351,62.0
"Fayetteville, NC",2020-08-01,995.8219923362346,35.085,-78.9772,,0.06839708990733451,521.0
"Lexington, KY",2020-08-01,1031.1744620499053,38.0423,-84.4587,,0.029082149529115586,139.0
"Pensacola, FL",2020-08-01,1231.0041996322786,30.4413,-87.1911,,0.06843324448846833,268.0
"Santa Rosa, CA",2020-08-01,2173.9815348812244,38.4458,-122.7067,,0.004642304281996523,115.0
"Reno, NV",2020-08-01,1455.461631455721,39.5497,-119.8483,,0.017735166278553205,188.0
"Huntsville, AL",2020-08-01,1114.717625043983,34.6981,-86.6412,,0.12202158897564286,184.0
"Port St. Lucie, FL",2020-08-01,1539.6102609649508,27.2796,-80.3884,,0.04553309284811369,64.0
"Lafayette, LA",2020-08-01,998.6167898272352,30.2082,-92.0325,,0.01538401598620931,85.0
"Myrtle Beach, SC",2020-08-01,1224.1580590924443,33.7094,-78.8844,,0.024974476687822378,100.0
"Springfield, MO",2020-08-01,898.6301593180002,37.1943,-93.2916,,0.06354960615917249,150.0
"Visalia, CA",2020-08-01,1250.6322756701245,36.3276,-119.3269,,0.037310812951914185,403.0
"Killeen, TX",2020-08-01,980.710662676757,31.0753,-97.7297,,0.04744927518085307,202.0
"Asheville, NC",2020-08-01,1293.195229497381,35.5707,-82.5537,,0.02803047130883196,144.0
"York, PA",2020-08-01,984.8477366500812,39.9651,-76.7315,,0.042701981097519104,260.0
"Vallejo, CA",2020-08-01,1992.4260110771463,38.1125,-122.2342,,0.021112565980748732,334.0
"Santa Maria, CA",2020-08-01,2545.348036017886,34.9333,-120.4431,,0.04867169721199027,68.0
"Salinas, CA",2020-08-01,2055.8623423144086,36.6883,-121.6317,,0.012413979388083085,129.0
"Salem, OR",2020-08-01,1229.1554863576305,44.9233,-123.0244,,0.03362552145723119,136.0
"Mobile, AL",2020-08-01,899.3218519507394,30.6782,-88.1162,,0.023617007996014294,141.0
"Reading, PA",2020-08-01,938.0873489489054,40.34,-75.9267,,0.053219766157504456,382.0
"Corpus Christi, TX",2020-08-01,1252.7870425741537,27.7254,-97.3767,,0.033893578537388835,76.0
"Brownsville, TX",2020-08-01,1030.2195642368613,25.9975,-97.458,,0.04158483281031011,69.0
"Manchester, NH",2020-08-01,1397.3710852656648,42.9848,-71.4447,,0.038612054927974704,247.0
"Fort Wayne, IN",2020-08-01,791.7805979468895,41.0888,-85.1436,,0.031129618376848356,197.0
"Gulfport, MS",2020-08-01,1026.5127453135674,30.4274,-89.0704,,0.07563765242828469,111.0
"Salisbury, MD",2020-08-01,1333.3655427323597,38.3756,-75.5865,,0.0437254747250273,237.0
"Flint, MI",2020-08-01,795.7885215071658,43.0236,-83.6921,,0.03340237327277107,188.0
"Peoria, IL",2020-08-01,775.6857261778197,40.752,-89.6154,,0.03774182039464269,84.0
